Name,Type,Postcode,Latitude,Longitude,MerchantID,Category
Matestone Coffee & Tea House,RESTAURANT,ME16 0GQ,51.275657,0.515641,5013300,Lawn and Supply Stores
TESTIMONY AFRICAN GHANA CUISINE,RESTAURANT,MK6 2BE,52.038748,-0.743597,5042677,Eating Places
BLUE PIT TEST CENTRE ,AUTO RELATED,OL11 2YW,53.592961,-2.176001,5045104,"Equipment, Furniture and home"
SUNMI LKI TESTING NG,PROFESSIONAL/FINANCIAL SERVICES,Cr4 3df,51.407566,-0.172989,5012880,"Health Practitioners, Medical"
Blood test at home UK,PROFESSIONAL/FINANCIAL SERVICES,SY13 1GW,52.971961,-2.688779,5043135,Barber and Beauty Shops
Fast Track MOT Testing,AUTO RELATED,S45 9NF,53.171692,-1.403688,5070858,Eating Places
HOLME VALLEY TESTING,AUTO RELATED,HD9 6QZ,53.609732,-1.788243,5045969,Eating Places
Chris Cooke Testimonial 2024,ENTERTAINMENT,CF11 9XR,51.487502,-3.193021,5012157,Stores
JD TESTING MAGHULL,HEALTH CARE,L34 1NQ,53.426228,-2.808341,5033377,Dry Cleaners
Elvis Falafels (Test),RESTAURANT,SW1H 0TL,51.497877,-0.135189,5040708,Clothing store
Glan Morfa Test Centre  ( NEW),AUTO RELATED,LL22 9AH,53.296894,-3.564011,8046452,Vending Machines
Otley Social Club,RESTAURANT,LS21 2DP,53.914915,-1.713281,5025651,Car Washes
Hammersmith wine store,RETAIL SHOPS,W6 9JG,51.492363,-0.230206,5022077,Service
p j motor services,AUTO RELATED,Sn138ey,51.424234,-2.239859,5056745,Eating Places
Carmans Inn,RESTAURANT,Bt30 9ea,54.396192,-5.761111,5046793,Recreation Services-not elsewh
Borough Green Garden Machinery,RETAIL SHOPS,tn15 8al,51.29255,0.304919,5022212,Vending Machines
Mainline Drainage Solutions,PROFESSIONAL/FINANCIAL SERVICES,HA4 7AE,51.574559,-0.428217,5014610,Caterers
YOLO Hair Design,PROFESSIONAL/FINANCIAL SERVICES,CB1 8QJ,52.181055,0.15197,5013056,Barber and Beauty Shops
Supreme Cigars,RETAIL SHOPS,LL29 7RS,53.294818,-3.726723,5060412,Telecommunication Equipment In
Supreme Cigars LTD,RETAIL SHOPS,LL29 7RS,53.294818,-3.726723,5039764,Eating Places
Parky's Chippy,RESTAURANT,BS35 2AQ,51.608283,-2.526451,5033339,Clothing store
The George Cavendish,RESTAURANT,CM7 4SR,51.948597,0.436933,5045225,Vending Machines
Portway House Cafe,RESTAURANT,B48 7hz,52.351793,-1.883626,5011815,Vending Machines
Bridges Knightsbridge ,RETAIL SHOPS,Rm12 6rj,51.551949,0.218852,5028158,Eating Places
Everest Gym,PROFESSIONAL/FINANCIAL SERVICES,CO10 2TU,52.04128,0.734131,5028167,Eating Places
Carlos Demo,HEALTH CARE,SE19 1LS,51.426352,-0.076909,5035234,Eating Places
5. Smiths Pharamacy,HEALTH CARE,NN16 8JT,52.404321,-0.726506,5011061,"Grocery Stores, Supermarkets"
6. Smiths Pharmacy ,HEALTH CARE,NN16 8JT,52.404321,-0.726506,5038132,Vending Machines
Snappy Snaps IP,PROFESSIONAL/FINANCIAL SERVICES,IP1 1BX,52.057591,1.153293,5012048,Wholesale Clubs
Bar Restaurant El Tomate Latino ,RESTAURANT,SE1 6AT,51.495385,-0.098096,5056757,Vending Machines
Esmeas,TRAVEL RELATED,Wd24 6pq,51.674546,-0.396336,5037274,Eating Places
BUDICAROL LTD,OTHER TRANSPORTATION,NW10 4RX,51.534694,-0.246093,5017838,Barber and Beauty Shops
Fish 2 Go,RESTAURANT,SS2 6QR,51.56259,0.702222,5042415,Dry Cleaners
Good 2 go cars Ltd,AUTO RELATED,IG1 1XN,51.559071,0.088447,5047071,Barber and Beauty Shops
Home Store,RETAIL SHOPS,KT1 2TD,51.402308,-0.301717,5018644,Stores
The Asteroid,ENTERTAINMENT,DH6 5PL,54.740987,-1.531942,5047621,Neutraceauticals
pier rides,ENTERTAINMENT,OL16 2AX,53.613566,-2.147837,5048831,Vending Machines
DELUXE CARE AGENCY,HEALTH CARE,SK5 8HU,53.429469,-2.128337,5065825,Eating Places
Patel Demo Machine,HEALTH CARE,LE2 1HB,52.625452,-1.111714,5044039,Vending Machines
Em classic services and maintenance ,AUTO RELATED,BS37 7LW,51.560769,-2.43707,5038792,Bakeries
House of vapez,RETAIL SHOPS,OL16 1DW,53.619361,-2.155657,5017117,Eating Places
favourite food,RETAIL SHOPS,HU3 4EJ,53.734305,-0.36861,5012501,Construction Materials-not els
"Wellness, Hair and Beauty",PROFESSIONAL/FINANCIAL SERVICES,WD25 7QX,51.69272,-0.408311,5048317,Stores
Warrington Fruit and Veg,RESTAURANT,Wa1 2nt,53.388301,-2.592532,5048328,Stores
Acharacle Village Store,RETAIL SHOPS,PH36 4JL,56.741607,-5.787669,5010869,Travel
Kilimanjaro worldwide Courier & Cargo 2 ,PROFESSIONAL/FINANCIAL SERVICES,NW10 4TD,51.533195,-0.24083,5042176,Vending Machines
KILIMANJARO WORLDWIDE  COURIER & CARGO LTD,PROFESSIONAL/FINANCIAL SERVICES,NW10 4TD,51.533195,-0.24083,5026454,Stores
Car Care Peterlee LTD,AUTO RELATED,SR8 2DP,54.768658,-1.347363,5039907,Eating Places
HERBAL ZEN,HEALTH CARE,Kt19 0dt,51.36823,-0.263881,5056021,Eating Places
Shwan Meat,SUPERMARKETS,N3 1xt,51.603832,-0.190494,5054117,Vending Machines
The Plant Place,PROFESSIONAL/FINANCIAL SERVICES,BS30 6QX,51.438126,-2.471001,5054561,Jewelry
Speed Buzz,ENTERTAINMENT,CW11 1SB,53.167015,-2.330161,5015448,Stores
Trapsot Blackburn,RESTAURANT,BB1 3LG,53.751468,-2.450941,5036863,Neutraceauticals
Chickaros Chicken Chigwell,RESTAURANT,UB5 4BX,51.555042,-0.37318,5012460,Neutraceauticals
G Pearson Catering,RESTAURANT,NG17 9LH,53.091397,-1.276395,5056909,Stores
Ifold Garage,AUTO RELATED,RH14 0UG,51.073171,-0.540082,5027966,Eating Places
RAJ & DAMINI,PROFESSIONAL/FINANCIAL SERVICES,LE4 7GN,52.657558,-1.10138,5014448,"Clock, Jewelry, and Watch Repa"
Harry Fashion Jewellery Limited,RETAIL SHOPS,UB1 1RT,51.510661,-0.376253,8046476,Pharmacy
Hair Parade,PROFESSIONAL/FINANCIAL SERVICES,EX8 1QD,50.624195,-3.411132,5054981,"Grocery Stores, Supermarkets"
Hockley Golf Club,ENTERTAINMENT,SO21 1PL,51.035539,-1.316287,5031112,"Grocery Stores, Supermarkets"
Skew Restaurant,RESTAURANT,En3 6ue,51.677382,-0.035125,5038700,Clothing store
THE BIG FISH,RESTAURANT,SK9 1AU,53.328132,-2.229951,5017648,"Grocery Stores, Supermarkets"
Subway,RESTAURANT,RM9 6FH,51.530188,0.144738,5050812,Caterers
CASTLE GIFTS,RETAIL SHOPS,G3 8HZ,55.858945,-4.276197,5045882,Car Washes
LA BAGUETTE,RESTAURANT,OX14 3QH,51.67096,-1.283697,5029543,"Grocery Stores, Supermarkets"
SHP Webborn Ltd,,SA3 3AP,51.580624,-4.035328,5054282,Tobacco
J & S Tyres,AUTO RELATED,BT11 9Ap,54.576389,-5.979128,5012047,Eating Places
THE GRILL,RESTAURANT,E16 2AU,51.501916,0.023195,5044173,"Bars, Cocktail Lounges, Discot"
THE GRILL1,RESTAURANT,E16 2AU,51.501916,0.023195,5051883,"Bars, Cocktail Lounges, Discot"
EMPORIO BRASIL MG,RESTAURANT,NW10 4LX,51.537184,-0.249025,5045954,Caterers
Oriental Pearl (D),RETAIL SHOPS,DA9 9PE,51.449336,0.275647,5045955,Caterers
MSC ,AUTO RELATED,RH14 0AZ,51.034595,-0.488364,5052171,Vending Machines
Khans Plasterers,PROFESSIONAL/FINANCIAL SERVICES,M14 6RA,53.436066,-2.215692,5048560,"Grocery Stores, Supermarkets"
DKC Menswear ,RETAIL SHOPS,ST5 2GP,53.012147,-2.247151,5020891,Tobacco
Mutaf Auto Refinishing ,AUTO RELATED,HP19 8BU,51.822888,-0.835833,5056834,Jewelry
Super Wash,PROFESSIONAL/FINANCIAL SERVICES,W12 0JE,51.508688,-0.237076,5033522,Vending Machines
RECORD FAYRE,RETAIL SHOPS,KA28 0DX,55.754906,-4.918711,5011976,Hardware Stores
Euro Vehicle Engineers Ltd,AUTO RELATED,Cm0 8aa,51.625502,0.819015,5033861,Mens and Boys Clothing
Edinburgh & Lothian Regional Equality Council,RESTAURANT,EH1 3LH,55.958004,-3.18712,5033867,"Mens, Womens, and Childrens"
Lavish Hair Lounge Limited ,PROFESSIONAL/FINANCIAL SERVICES,W1b 3hh,51.517327,-0.142383,8046884,Veterinary Services
Shop and Go MILE END,SUPERMARKETS,SW8 1SJ,51.484859,-0.124111,5060099,Vending Machines
Prudhoe off licence,RETAIL SHOPS,ne296qz,55.005266,-1.449515,5024277,Neutraceauticals
FOREST GATE FISH MELA ,SUPERMARKETS,E7 9PA,51.544938,0.02633,5022648,Car Washes
Sherif Demo account,RESTAURANT,KT2 5AH,51.413785,-0.304988,5041829,Stores
Victoria Kerrigan PMU ,PROFESSIONAL/FINANCIAL SERVICES,ME5 9AB,51.343192,0.524322,5041839,Stores
Cafe Metro,RESTAURANT,N19 5RQ,51.5655,-0.134965,5037947,Neutraceauticals
The Courtyard Lytham,RESTAURANT,FY8 5LQ,53.736616,-2.96554,8046691,"Artist Supply Stores, Craft Sh"
ANTALYA SHAWARMA ,RESTAURANT,BL1 1NB,53.577031,-2.42972,8046529,"Artist Supply Stores, Craft Sh"
Ali Baba,RESTAURANT,EX4 3AT,50.721512,-3.534277,5028168,Barber and Beauty Shops
The Nutshell Wawick,RETAIL SHOPS,CV34 4RA,52.282137,-1.589008,5011428,Stores
Recycled Lines,RETAIL SHOPS,Tw3 3dh,51.472669,-0.384679,5068017,"Architectural, Engineering, an"
Alsomur's Land,RESTAURANT,W2 1DW,51.518999,-0.168227,5060796,Eating Places
Bangla Town,RETAIL SHOPS,LS11 6DP,53.778092,-1.548669,5017364,Veterinary Services
West End Smoking Accessories,RETAIL SHOPS,G61 2rh,55.916939,-4.330777,5042645,Vending Machines
Toad Rock Retreat,RESTAURANT,TN4 8NX,51.134224,0.239077,5044295,Eating Places
Greenleaf KBB LTD,RETAIL SHOPS,CB8 8FE,52.244139,0.405269,5022051,Eating Places
Regent Street Orthodontics,HEALTH CARE,NG1 5BQ,52.95307,-1.156579,5029696,Stores
Love Home,RETAIL SHOPS,Cm17 0et,51.782956,0.141467,5018408,Books
Sofia Hairstyle,PROFESSIONAL/FINANCIAL SERVICES,B10 0NR,52.470521,-1.862943,5011002,Concrete Work Contractors
King Mini Market,RETAIL SHOPS,WA3 3BJ,53.475541,-2.597424,5037137,Vending Machines
Peri kebab house,RESTAURANT,B71 3HR,52.544848,-1.983126,5068776,Eating Places
Kings Farm Grill,RESTAURANT,Da12 5hy,51.426183,0.375584,5044628,Vending Machines
Clacton Conservative Club,RESTAURANT,CO15 3AU,51.795466,1.148421,5046272,Eating Places
Food U Like,RESTAURANT,NG17 9lh,53.091397,-1.276395,8046464,Stores
Ali Barber,PROFESSIONAL/FINANCIAL SERVICES,LL11 1LP,53.047221,-2.994631,5012601,Vending Machines
E + G JEHU,SUPERMARKETS,NP8 1BP,51.859152,-3.135661,5060116,"Bars, Cocktail Lounges, Discot"
Foodie's Choice ,RESTAURANT,HA9 6DL,51.547737,-0.279787,5041111,"Grocery Stores, Supermarkets"
Hook and Son,SUPERMARKETS,BN27 1ER,50.870995,0.267855,5051843,"Grocery Stores, Supermarkets"
Drinks Drinks Drinks,RESTAURANT,NE33 2LD,54.998645,-1.413449,5011594,Eating Places
COCKTAILS R US,RESTAURANT,NE33 2LD,54.998645,-1.413449,5060733,Service stations
Fox and Thistle,RETAIL SHOPS,JE2 4WD,FAILED,FAILED,5059563,Barber and Beauty Shops
BEST BUY COMMUNICATION ,TELECOMMUNICATIONS,RM10 8QS,51.541843,0.148113,5029516,"Automotive Parts, Accessories"
BEST BUY COMMUNICATION 1,TELECOMMUNICATIONS,RM10 8QS,51.541843,0.148113,5034965,Car Washes
Drayton Motors,AUTO RELATED,SL37hs,51.499685,-0.56317,5059086,Eating Places
Food House 2,RESTAURANT,S25 4AD,53.361986,-1.233355,5056776,Vending Machines
Food House,RETAIL SHOPS,S25 4AD,53.361986,-1.233355,5054534,Florists
A & J Connell,RESTAURANT,S25 4AD,53.361986,-1.233355,8046413,Neutraceauticals
Bridport Lighting Centre,RETAIL SHOPS,DT6 5SA,50.74867,-2.753899,8046468,Stores
Sophe Cafe,RESTAURANT,N1 1EE,51.539737,-0.117168,5059216,Vending Machines
SOPHE CAFE SHOP,RESTAURANT,N1 1EE,51.539737,-0.117168,5017765,Barber and Beauty Shops
PAN AJIA ,RESTAURANT,Ol9 6az,53.544101,-2.127449,5054384,Vending Machines
KN Real Estate 215 Ltd,RESTAURANT,OL8 1NW,53.52693,-2.111224,8046433,Vending Machines
Hearsall Inn,RESTAURANT,CV21 2SN,52.375373,-1.258173,5061027,Eating Places
White Eagle Windows & Doors,PROFESSIONAL/FINANCIAL SERVICES,Ls28 6le,53.803677,-1.656934,5032582,"Bars, Cocktail Lounges, Discot"
FONE MASTER,TELECOMMUNICATIONS,NW5 2AA,51.550012,-0.140445,8046576,Barber and Beauty Shops
Perfect Fried Chicken,RESTAURANT,SE8 4NS,51.478244,-0.026267,5011288,Clothing store
Flavours,RESTAURANT,BD8 9PA,53.804618,-1.788405,5014112,"Bars, Cocktail Lounges, Discot"
Chester FC,ENTERTAINMENT,CH1 4LT,53.192439,-2.916627,5012815,Car Washes
Jahangir Tandoori,RESTAURANT,DD1 5DN,56.460421,-2.980153,5022289,Eating Places
GPR Repairs ,AUTO RELATED,EX8 2RN,50.623862,-3.381391,5024388,"Grocery Stores, Supermarkets"
Sovereign Dry cleaners,PROFESSIONAL/FINANCIAL SERVICES,SG12 9BP,51.810198,-0.029888,5050168,Eating Places
Tomi pizza ,RESTAURANT,CF24 3QS,51.488086,-3.163582,5012050,Vending Machines
Italiamo Cafe,RESTAURANT,OX1 3AS,51.754066,-1.257174,5022418,"Equipment, Furniture and home"
Concept,RETAIL SHOPS,M1 1as,53.483069,-2.233907,5045746,Caterers
Urban Sliders,RETAIL SHOPS,DH8 8LZ,54.857926,-1.847842,5045743,Caterers
Maggies Sandwich bar,RESTAURANT,NG6 8AG,53.012438,-1.190371,5053387,Stores
M Uddin Clothing,RETAIL SHOPS,SW9 8PE,51.463172,-0.113138,5043952,Horticultural and Landscaping
Southern Fried Chicken ,RESTAURANT,RG30 4TF,51.457138,-1.03854,5053655,Horticultural and Landscaping
Oakerside Tea Rooms,RESTAURANT,SR8 1NJ,54.747219,-1.337748,5037875,Neutraceauticals
Piccolos Long Ashton ,RETAIL SHOPS,Bs419aa,51.428915,-2.665046,5038164,Stores
GRANBY OFF-LICENCE,SUPERMARKETS,LE1 1DJ,52.632968,-1.128591,5055377,Vending Machines
Gents Barbers,PROFESSIONAL/FINANCIAL SERVICES,Tw2 5ah,51.4442,-0.346694,5032175,Vending Machines
MiMi’s Churros,RESTAURANT,cb6 3qb,52.3622,0.209889,5065653,Eating Places
Kustomyze,AUTO RELATED,SK1 4LR,53.400631,-2.146674,5025381,Stores
David Bates Chiropractor,HEALTH CARE,HD8 9DX,53.590708,-1.646104,5025382,Caterers
The Curtain Cabin,RETAIL SHOPS,DT1 1UW,50.715102,-2.438853,5054870,Vending Machines
Charlton Car Wash ,AUTO RELATED,IG2 6HE,51.575875,0.065849,5060456,Eating Places
VIRAL STREET FOOD,RESTAURANT,IG1 2ZN,51.558296,0.068298,5044700,Eating Places
Icut Barber Shop,PROFESSIONAL/FINANCIAL SERVICES,DE24 8UQ,52.907031,-1.452376,5031465,Neutraceauticals
Euro shop,RETAIL SHOPS,DE24 8UQ,52.907031,-1.452376,5038077,Vending Machines
HK FOOD TRADERS,RETAIL SHOPS,B4 7LJ,52.481417,-1.894646,5015389,Eating Places
Sarieh dressmaker,RETAIL SHOPS,M33 6WT,53.425686,-2.326145,5014794,Eating Places
Snowshill Arms,RESTAURANT,WR12 7JU,52.001902,-1.861065,5013999,Eating Places
Lickey Banker,RESTAURANT,B45 0jd,52.403706,-2.025708,5018475,General Contractors-Residential
Sk fruits & vegetables,SUPERMARKETS,E6 1JG,51.539636,0.050813,5034625,"Bars, Cocktail Lounges, Discot"
The Frying Scotsman,RESTAURANT,EX4 8AJ,50.732469,-3.491187,5051734,"Bars, Cocktail Lounges, Discot"
Suite sensation ,RETAIL SHOPS,L15 5an,53.388885,-2.916947,5056032,Eating Places
Ladywell Kebab & Steak House,RESTAURANT,SE13 7JA,51.456675,-0.021239,5052362,Stores
Candy land,RESTAURANT,Ox298ad,51.796933,-1.394116,5017211,Stores
Shaunz Store,RETAIL SHOPS,UB2 4JN,51.497548,-0.374738,5012373,Stores
Tre House,RESTAURANT,SE1 2HG,51.50034,-0.07439,5051909,"Candy, Nut, Confectionery Stor"
The Artist Barbers,PROFESSIONAL/FINANCIAL SERVICES,HA8 7EJ,51.61036,-0.278394,8046706,Vending Machines
SAM MART (SALLYOAK) LTD,SUPERMARKETS,B29 6BQ,52.444718,-1.934613,5043946,Eating Places
7 Cafe,RESTAURANT,EH3 9DQ,55.945288,-3.200756,5022183,Vending Machines
Domoworktops Ltd,PROFESSIONAL/FINANCIAL SERVICES,NW6 2BS,51.543047,-0.198949,5018365,Computers/software
Coco Gifts,RETAIL SHOPS,DE4 3AT,53.138467,-1.555995,5027164,Vending Machines
Candy World ,RETAIL SHOPS,BT6 8EF,54.5898,-5.910171,5012838,Neutraceauticals
Brookhouse Garage Wheelock Ltd,AUTO RELATED,CW11 3RX,53.12739,-2.37357,5012828,Stores
Palms cleaning and support services,PROFESSIONAL/FINANCIAL SERVICES,NW6 7EP,51.539919,-0.196906,5060710,Eating Places
DRF Catering,PROFESSIONAL/FINANCIAL SERVICES,Ws3 4qg,52.621315,-1.982713,5058489,Travel
Town Mini Market,RETAIL SHOPS,CA14 2BB,54.644869,-3.547256,5013376,Vending Machines
MK2A SIERRA LEONE RESTAURANT ,RESTAURANT,M11 4PB,53.481408,-2.168637,5059328,Tobacco
Sun Hing Fish & Chips ,RESTAURANT,BS5 0RA,51.460188,-2.575122,5053789,Eating Places
Crosslyn Garage Ltd,AUTO RELATED,SA43 1BZ,52.083546,-4.660068,5016893,Automotive Paint Shops
Habby Taxi,OTHER TRANSPORTATION,BS16 3TE,51.481215,-2.527881,5013931,Vending Machines
Hessle Hand Car Wash,AUTO RELATED,HU13 0AE,53.723355,-0.434496,5039626,"Grocery Stores, Supermarkets"
Harveyson Consult Ltd,PROFESSIONAL/FINANCIAL SERVICES,NR2 2PY,52.6273,1.279775,5019556,Womens Ready to Wear Stores
Suffolk Chill N Grill,RESTAURANT,CB9 8JJ,52.078661,0.426529,5047925,Automobile Rental Agency-not e
Rugratz Play Gym,ENTERTAINMENT,LS12 3BL,53.794356,-1.59812,5046615,Neutraceauticals
DJ’s Spot,RESTAURANT,RH12 3GP,51.066542,-0.370861,5028993,Stores
FLOUR POWER,PROFESSIONAL/FINANCIAL SERVICES,BT7 1dq,54.589528,-5.93248,5066487,Motor Vehicle Supplies and New
Asphair Salon,PROFESSIONAL/FINANCIAL SERVICES,SW2 1he,51.448977,-0.124027,5044791,Stores
Techvibe Hayes,TELECOMMUNICATIONS,UB3 3ES,51.508733,-0.415445,5018877,Stores
Pizza On Demand,RESTAURANT,E13 8QG,51.525259,0.029508,5039366,Stores
Accessory Attic,RETAIL SHOPS,IG10 4AH,51.667396,0.03176,5039643,Stores
Spicy Bento,RESTAURANT,TW18 4EN,51.434201,-0.514717,5039645,Stores
CROWS NEST CAFE,RESTAURANT,SA73 3AH,51.712008,-5.039061,5058338,Stores
Gooofy ,RESTAURANT,BS1 3QD,51.461668,-2.59024,5013004,Stores
Damascus Nights,RESTAURANT,BS1 3QD,51.461668,-2.59024,5013549,Vending Machines
Damascus Night ,RESTAURANT,BS1 3QD,51.461668,-2.59024,5060290,Real Estate Agents and Manager
PL & Bucharest mini market,SUPERMARKETS,B42 1NN,52.532074,-1.930214,5024622,Automatic Service
TEA GARDEN,RESTAURANT,E1 1JE,51.517979,-0.063729,5036837,"Grocery Stores, Supermarkets"
President Watch Co,RETAIL SHOPS,E1 7QD,51.51604,-0.074993,5031893,Neutraceauticals
The Food Stop,RESTAURANT,G72 7GJ,55.811458,-4.131138,5050370,"Grocery Stores, Supermarkets"
Hampton Spice,RESTAURANT,TW12 2HY,51.416665,-0.370497,5041347,Discount Stores
Unisex hairdresser,PROFESSIONAL/FINANCIAL SERVICES,L18 4QZ,53.369681,-2.909095,5060497,Neutraceauticals
Be Smart Dry Cleaners,PROFESSIONAL/FINANCIAL SERVICES,N1 6PJ,51.531417,-0.080415,5012040,"Opticians, Optical Goods, and"
Best Barber ,PROFESSIONAL/FINANCIAL SERVICES,DE14 2NJ,52.808972,-1.643512,5011762,Eating Places
OMNIVERSE HERB LIMITED,RETAIL SHOPS,HA2 9AJ,51.56154,-0.374233,5037247,Limousines and Taxicabs
Naz for Retail ,RETAIL SHOPS,L25 7RG,53.374436,-2.869153,5023352,Plumbing and Heating Equipment
Dirty Boys ,RESTAURANT,GL51 9FL,51.907892,-2.094192,5012069,"Cleaning, Garment, and Laundry"
Dirty Boys 2,RESTAURANT,GL51 9FL,51.907892,-2.094192,5015006,Stores
PCS,RESTAURANT,IG1 4TD,51.563351,0.067229,5049396,Stores
Bakers Oven ,SUPERMARKETS,SR1 3JG,54.904409,-1.38542,5049391,Stores
Pyzah's Caribbean Takeaway,RESTAURANT,B66 4SF,52.486929,-1.959084,5018681,Carpentry Contractors
Custom Glazing Ltd,RETAIL SHOPS,BS37 1EJ,FAILED,FAILED,5012352,Barber and Beauty Shops
All Sorts,RETAIL SHOPS,IV1 1PL,57.479015,-4.224894,5036139,Vending Machines
Mackays,RETAIL SHOPS,IV1 1PL,57.479015,-4.224894,5020880,Neutraceauticals
Airway Travels Limited ,TRAVEL RELATED,SL6 7BE,51.528331,-0.727936,5054603,"Grocery Stores, Supermarkets"
PIZZA BOY,RESTAURANT,KY12 7AN,56.072846,-3.462532,5054604,"Grocery Stores, Supermarkets"
Seasiders Emporium,RETAIL SHOPS,HU19 2DL,53.731219,0.032556,5051311,"Grocery Stores, Supermarkets"
No13 Coffee,RESTAURANT,BN2 3HP,50.832582,-0.129422,5051313,"Grocery Stores, Supermarkets"
Alhambra Restaurant,RESTAURANT,E1 1JE,51.517979,-0.063729,5050781,"Grocery Stores, Supermarkets"
FISH & CHIPS,RESTAURANT,UB2 5PQ,51.496355,-0.387364,5054602,"Grocery Stores, Supermarkets"
Kinzy London,RETAIL SHOPS,IG6 2LD,51.602317,0.083889,5059143,Barber and Beauty Shops
A & R Flooring,RETAIL SHOPS,Ch65 3du,53.284947,-2.916549,5021448,Eating Places
Fenwick News,RETAIL SHOPS,L2 7NB,53.405458,-2.991372,5035590,Stores
Furness Store,RETAIL SHOPS,W2 5SS,51.521996,-0.192122,5056601,Eating Places
South Central Conversions,RETAIL SHOPS,RG7 4LH,51.394925,-1.151815,5023127,Vending Machines
Cafe Salaam & Sandwiches,RESTAURANT,N4 2DN,51.563824,-0.104631,5042988,Vending Machines
Watch-Planet & Co,PROFESSIONAL/FINANCIAL SERVICES,W2 4QP,51.510943,-0.1874,5044809,Stores
Apple Pharmacy,HEALTH CARE,G11 7RT,55.871222,-4.313297,5055975,Eating Places
Costcutter,SUPERMARKETS,SW20 0LA,51.409651,-0.230928,5040262,"Grocery Stores, Supermarkets"
Bargain booze,SUPERMARKETS,LE2 1TT,52.617845,-1.117518,5027914,Eating Places
Focus on Fashion,RETAIL SHOPS,LE65 2FH,52.746016,-1.473643,5047563,Discount Stores
cosy corner store,SUPERMARKETS,ML3 8PE,55.769736,-4.055874,8046563,Neutraceauticals
COOKED BY TIANN,PROFESSIONAL/FINANCIAL SERVICES,W14 9LW,51.488537,-0.203399,5040016,Eating Places
Hand Car wash (CPV Valeting),AUTO RELATED,BH14 0LT,50.724482,-1.959238,5051689,"Bars, Cocktail Lounges, Discot"
HEADY HILL STORES ,SUPERMARKETS,OL10 3JH,53.592731,-2.241782,5053385,"Grocery Stores, Supermarkets"
Kings Vape,RETAIL SHOPS,CF24 1PU,51.487222,-3.159248,5053321,"Grocery Stores, Supermarkets"
Chrakhan,RESTAURANT,TW1 3SX,51.447388,-0.328698,5057320,Eating Places
Waterside ,RESTAURANT,WN7 4DB,53.494348,-2.521749,5013321,Automatic Service
The Notter Bridge Inn,RESTAURANT,PL12 4RN,50.426296,-4.274508,5025299,Vending Machines
demi@s diner 1,PROFESSIONAL/FINANCIAL SERVICES,DN7 6HL,53.588243,-0.962889,5043351,Vending Machines
demsi's diner 2,PROFESSIONAL/FINANCIAL SERVICES,DN7 6HL,53.588243,-0.962889,5050276,Eating Places
Mr Whippy,RESTAURANT,LE2 9FD,52.588469,-1.152405,5018171,Barber and Beauty Shops
A&K Walli's Supermarket,SUPERMARKETS,B25 8UR,52.468013,-1.808359,5055539,Eating Places
Vape Zone,RETAIL SHOPS,BS110dl,51.489357,-2.675925,5055536,Eating Places
Radhakrishna fine jewellery,RETAIL SHOPS,E6 2DW,51.538706,0.061788,5055542,Eating Places
Bengal Pizza,RESTAURANT,E1 4UN,51.520379,-0.051735,5055530,Eating Places
M&A Market,RETAIL SHOPS,Ig11 9PY,51.536955,0.097687,5055547,Eating Places
Mabu Crawley VAT 412426979,RETAIL SHOPS,RH10 1FD,51.113597,-0.185504,5055534,Eating Places
Mabu Eastbourne 412426979,RETAIL SHOPS,RH10 1FD,51.113597,-0.185504,5060722,Stores
GOLDEN DYNASTY,RESTAURANT,LN5 7DQ,53.225913,-0.54195,5060719,Stores
All In One,RETAIL SHOPS,DN35 8LA,53.560588,-0.030611,5058794,Country Clubs
Nasan Car Wash,AUTO RELATED,WS3 2AF,52.60689,-1.998288,5060723,Stores
Dodgem,ENTERTAINMENT,NG16 6GJ,53.087689,-1.306052,5060724,Stores
Welcome 2 Miami,ENTERTAINMENT,NG16 6GJ,53.087689,-1.306052,5054783,"Florists supplies, Nursery Store"
VEGETABLE SHOP WANTNEY MARKET,RETAIL SHOPS,E1 1EN,51.515647,-0.065814,5044192,Telecommunication Equipment In
Calluna,RETAIL SHOPS,EH49 7EJ,55.976211,-3.603294,5026933,Dry Cleaners
Fair Tradewinds,RETAIL SHOPS,EH49 7EJ,55.976211,-3.603294,5026938,Dry Cleaners
LBC Studios,PROFESSIONAL/FINANCIAL SERVICES,NW6 5EN,51.532313,-0.189969,5051737,"Grocery Stores, Supermarkets"
Richard Hitchcocks Mechanical Services. ,AUTO RELATED,NN12 8UY,52.091239,-1.034356,5036443,Vending Machines
Tove Engineering,PROFESSIONAL/FINANCIAL SERVICES,NN12 8UY,52.091239,-1.034356,5028233,Stores
Dream Cafe,RESTAURANT,BS16 5LN,51.481285,-2.506122,5028231,Stores
KING OF DESSERTS,RESTAURANT,L20 4NH,53.4602,-3.003129,5033121,"Grocery Stores, Supermarkets"
Dokis Restaurant ,RESTAURANT,SE14 6TJ,51.474602,-0.027839,5045087,Horticultural and Landscaping
Crusoes Fish Bar,RESTAURANT,TQ2 7TG,50.49055,-3.557826,5017508,Tobacco
Evershine beauty,RETAIL SHOPS,CR7 8LE,51.398236,-0.093632,5025005,Stores
BEDROCK PRODUCTS LTD,PROFESSIONAL/FINANCIAL SERVICES,DN16 1DQ,53.580836,-0.63031,5054729,Eating Places
The Coffee Club,RESTAURANT,BS36 2NP,51.529925,-2.454461,5053058,Travel
JSD Catering 2,RESTAURANT,BS36 2NP,51.529925,-2.454461,5019279,Eating Places
JSD Catering.,RESTAURANT,BS36 2NP,51.529925,-2.454461,5055398,Stores
Zin,RESTAURANT,NW10 6AU,51.5305,-0.235037,5012859,"Freezer, Locker Meat Provision"
First XV,RETAIL SHOPS,EH12 5JZ,55.94608,-3.219835,5019719,Eating Places
Fairfax Cafe,RESTAURANT,B31 3SH,52.397456,-1.966815,5042978,Eating Places
The Widow’s Son Pub,RESTAURANT,E3 3PJ,51.522182,-0.018128,5048392,Vending Machines
Stanmore station mini market,SUPERMARKETS,W3 6AY,51.508532,-0.265707,5051007,Vending Machines
Stanmore station mini market 1,SUPERMARKETS,W3 6AY,51.508532,-0.265707,5048393,Vending Machines
Porto Grill,RESTAURANT,Po2 9ha,50.82107,-1.076603,5027661,Vending Machines
DPF 1st Call,OIL COMPANIES,EX2 4DG,50.718213,-3.528842,5031736,Stores
Sivam Hair And Beauty,PROFESSIONAL/FINANCIAL SERVICES,ML3 0BP,55.779779,-4.052401,5031732,Stores
Fast Tech,AUTO RELATED,N12 0BP,51.613666,-0.176324,5013965,Vending Machines
FOX'S VALETING,AUTO RELATED,GU2 8XW,51.245978,-0.585099,5014242,Stores
Munchies,RESTAURANT,DA11 0AE,51.442328,0.365701,5014244,Stores
midnight brownie club,RESTAURANT,M12 4RX,53.463528,-2.194685,5046119,Tobacco
ELYN Boutique Faux Wedding Flowers & Venue Styling,RETAIL SHOPS,CF37 2HF,51.606031,-3.344546,8046486,Neutraceauticals
ALL IN ONE,RETAIL SHOPS,G4 0QS,55.860889,-4.23882,5049163,Vending Machines
Jennifer Valentine nails and be,PROFESSIONAL/FINANCIAL SERVICES,DD2 1RZ,56.460419,-3.000742,5015367,Barber and Beauty Shops
Little Jack Fullers,RESTAURANT,BN2 1TP,50.820608,-0.133138,5030064,Vending Machines
Always Sunday Hair Studio,PROFESSIONAL/FINANCIAL SERVICES,NP7 5BA,51.823287,-3.02014,5016910,Automatic Service
CANTINHO DA MAYA PITDOG E LANCHONETE,RESTAURANT,SE16 3TP,51.49232,-0.061457,5022887,Vending Machines
WRAPS 4 U,RESTAURANT,G2 8HA,55.858676,-4.25814,5013350,"Bars, Cocktail Lounges, Discot"
Door Step Dolci,RESTAURANT,LU4 8SN,51.888594,-0.464649,5020631,Vending Machines
Bishop Auckland Cricket Club ,RESTAURANT,DL4 1LW,54.631003,-1.660123,5023007,Vending Machines
Kyzan Hair,PROFESSIONAL/FINANCIAL SERVICES,TW1 4PS,51.43859,-0.339142,5040609,Eating Places
The T-Shirt Shop,RETAIL SHOPS,BS23 1QL,51.348815,-2.97483,5056240,Eating Places
The New Inn,RESTAURANT,SN2 2GA,51.564574,-1.796353,5012396,Courier Services-Air and Ground
SPRINGWOOD CAR WASH,AUTO RELATED,CM7 2YN,51.886887,0.536178,5013103,Barber and Beauty Shops
Talwar Express ,RESTAURANT,Bs14xg,51.452778,-2.598216,5035945,Vending Machines
Heathfield Nurseries,SUPERMARKETS,WA16 9RN,53.2818,-2.400937,5053500,Eating Places
Chicken Star's,RESTAURANT,DY6 8TU,52.48969,-2.142349,5025126,Barber and Beauty Shops
The Rotisserie Co,RESTAURANT,E125ET,51.561366,0.039282,8046358,Pharmacy
BELLE ÂME BATHROOMS LTD,RETAIL SHOPS,ML11 8DD,55.765432,-3.690395,5019733,Stores
T Roberts catering 2,PROFESSIONAL/FINANCIAL SERVICES,B64 5AY,52.473545,-2.090202,5044655,Eating Places
T Roberts Catering 1,PROFESSIONAL/FINANCIAL SERVICES,B64 5AY,52.473545,-2.090202,5038130,"Candy, Nut, Confectionery Stor"
Burley Ice Creams,RETAIL SHOPS,BH24 4BU,50.826574,-1.706193,5015421,"Equipment, Furniture and home"
Klipy (Demo),PROFESSIONAL/FINANCIAL SERVICES,NW10 8EZ,51.538783,-0.257837,5026820,Clothing store
Basit Ali Ahmed,PROFESSIONAL/FINANCIAL SERVICES,NW10 8EZ,51.538783,-0.257837,5013903,Other Services
The veg & flower patch,RETAIL SHOPS,SA31 1SG,51.862998,-4.310187,5050346,Eating Places
PHONE X VAPE,RETAIL SHOPS,NW9 7AA,51.576007,-0.237608,5041730,"Candy, Nut, Confectionery Stor"
U S A CHICKEN &PIZZA,RESTAURANT,E17 5DX,51.599792,-0.029174,5016554,Vending Machines
Burgers Chips 'N' Dips,RESTAURANT,BS36 2EW,51.531986,-2.480965,5041729,"Candy, Nut, Confectionery Stor"
Burgers Chips & Dips,RESTAURANT,BS36 2EW,51.531986,-2.480965,5016553,Vending Machines
Coffee Station 1,ENTERTAINMENT,DH5 0RR,54.818666,-1.448289,5014120,Vending Machines
Coffee Station 2,PROFESSIONAL/FINANCIAL SERVICES,DH5 0RR,54.818666,-1.448289,5016918,"Grocery Stores, Supermarkets"
SFC (Neville Street) Southport Food Centre,RESTAURANT,PR9 0UT,53.648717,-3.002484,5055988,"Grocery Stores, Supermarkets"
Nineteen,RESTAURANT,EC2A 4NE,51.525615,-0.083628,5070832,Neutraceauticals
K1 TURKISH KITCHEN  LTD,RESTAURANT,KT6 6HE,51.388861,-0.297817,5044778,"Grocery Stores, Supermarkets"
Bun Gust,RETAIL SHOPS,E1 1de,51.518862,-0.062291,5070828,Neutraceauticals
Mosiah Catering,RESTAURANT,IG11 7RW,51.535075,0.090131,5037813,Tobacco
The Old Guardhouse,RESTAURANT,IM8 2EB,FAILED,FAILED,5031093,Vending Machines
R&O - MARKET,RESTAURANT,sa68 0uf,51.732541,-4.716182,5031098,Vending Machines
THE BRICKYARD (HEDENHAM) LTD,RESTAURANT,IP19 8ET,52.345099,1.50559,5035933,Stores
AB CONCRETE PUMPING LTD,PROFESSIONAL/FINANCIAL SERVICES,Hd4 5uf,53.634451,-1.83494,5029264,Lawn and Supply Stores
Sweets of yesteryear,RESTAURANT,DN7 5HS,53.588145,-1.02826,5012355,Stores
Crown & Anchor Inn,RESTAURANT,HU15 2PR,53.760747,-0.70563,5021558,Stores
Oriental  Chinese,RESTAURANT,LS12 2TE,53.811293,-1.610748,5029689,Theatrical Ticket Agencies
Flooring Centre ,RETAIL SHOPS,B9 5DY,52.476665,-1.855892,5069445,Recreation Services-not elsewh
JJ Graham amusements,ENTERTAINMENT,WR13 5AW,52.142508,-2.30787,5069444,Recreation Services-not elsewh
Fleet Motorglass,AUTO RELATED,LU7 2TJ,51.921963,-0.688562,5036555,Stores
Whisked,RETAIL SHOPS,Ex1 1lt,50.723929,-3.529127,5071813,Recreation Services-not elsewh
The Golden Meng Oriental,RESTAURANT,IP2 0JW,52.057368,1.127029,5054152,Vending Machines
Pink coffee custard,RESTAURANT,CV37 6LP,52.192397,-1.709761,5054150,"Grocery Stores, Supermarkets"
EUROPA PIZZA,RESTAURANT,SE25 5QF,51.388892,-0.090295,5017653,Automatic Service
FixIT Repairs,PROFESSIONAL/FINANCIAL SERVICES,L4 3QW,53.441773,-2.970582,5012502,Stores
Mazar city grill,RESTAURANT,RH1 1LY,51.241,-0.168292,5010998,"Equipment, Furniture and home"
Kalahari Moon,RETAIL SHOPS,bs11jq,51.454404,-2.593529,5027570,Eating Places
Colourhill Kitchens,RETAIL SHOPS,S40 2ba,53.234063,-1.446015,5051071,General Contractors-Residential
Roz Cafe,RESTAURANT,E16 2LJ,51.50094,0.062648,5014116,"Building Materials, Lumber sto"
Skylinks travel & services,TRAVEL RELATED,M19 3AR,53.448019,-2.191513,5055609,Eating Places
Baps & Wraps,RESTAURANT,CA2 5JQ,54.885577,-2.942022,5043368,Eating Places
DIAMOND LTD,RETAIL SHOPS,IP14 1AD,52.186776,0.996954,5046327,Hardware Stores
Porkys,RESTAURANT,NE28 6EQ,54.987432,-1.527366,5035591,"Bars, Cocktail Lounges, Discot"
DUNDEE WRAPPING,AUTO RELATED,Dd4 8ps,56.480978,-2.917783,8046532,Stores
SHISH MAHAL,RESTAURANT,G75 8YQ,55.757144,-4.200707,5058572,Barber and Beauty Shops
Skipton's No1 Store,SUPERMARKETS,BD23 2LU,53.958953,-2.017814,5054190,"Consulting, Public Relations"
K-Chic,RETAIL SHOPS,BT30 6DW,54.326485,-5.716767,5051220,Stores
Wish Car Hire Ltd,CAR RENTAL,M19 2HR,53.43988,-2.199921,5017312,Tourist Attractions and Exhibi
Calver Service Station,RETAIL SHOPS,S32 3XH,53.271123,-1.643541,5040461,Barber and Beauty Shops
Louback’s garage ,AUTO RELATED,BS2 0DF,51.456767,-2.579312,5047236,Stores
Trade Price Tyres,AUTO RELATED,NP20 5NQ,51.598846,-2.994513,5054630,Vending Machines
Bad Boys Firework’s,RETAIL SHOPS,NP20 5NQ,51.598846,-2.994513,5059727,Barber and Beauty Shops
Bad Boys Fireworks,RETAIL SHOPS,NP20 5NQ,51.598846,-2.994513,5066564,Eating Places
 Camden Spinners,RETAIL SHOPS,NW4 4NJ,51.584516,-0.233176,5035062,"Game, Toy, and Hobby Shops"
Camden Treasures,RETAIL SHOPS,NW4 4NJ,51.584516,-0.233176,5015175,"Bars, Cocktail Lounges, Discot"
Camden Arts,RETAIL SHOPS,NW4 4NJ,51.584516,-0.233176,5038634,Neutraceauticals
Tea mountain,RETAIL SHOPS,PO12 4GT,50.808834,-1.132026,5044306,Stores
Market Place Garage,AUTO RELATED,DH4 6TL,54.847534,-1.518661,5019943,Vending Machines
Golden Star,RESTAURANT,Ka5 5df,55.517187,-4.381089,5039373,Car Washes
CRESTAS ESTATES LIMITED,ALL OTHER,NW10 7PN,51.537447,-0.284334,5031082,Barber and Beauty Shops
Remap2Race Bristol,AUTO RELATED,EX2 4DG,50.718213,-3.528842,5023479,Barber and Beauty Shops
CONNIE & SON'S AFRICAN CARIBBEAN SHOP,SUPERMARKETS,E7 0EN,51.549822,0.02512,5030955,Books
new ansdell Food and Wine,RETAIL SHOPS,FY1 6PU,53.80338,-3.038835,5020928,Eating Places
Collier Row Supermarket,SUPERMARKETS,RM5 3NR,51.598611,0.161491,5014395,Department Stores
Billboard,RETAIL SHOPS,B66 2AA,52.496991,-1.968561,5017191,"Fuel Dealers-Coal, Fuel Oil, L"
2 Sweet,RETAIL SHOPS,DY8 1EQ,52.455044,-2.143965,5011977,Hardware Stores
Portobello Road Market - Stall 46,HEALTH CARE,HA7 4EU,51.613645,-0.307238,5034944,"Grocery Stores, Supermarkets"
WASSOUF LOUNGE,RESTAURANT,W14 0sj,51.493262,-0.208932,5039517,Neutraceauticals
Hozefa Shakir,OTHER TRANSPORTATION,UB55HP,51.546549,-0.364606,5054017,Eating Places
Quick Fix Diy,RETAIL SHOPS,WF13 1HX,53.689846,-1.635822,5016496,"Health Practitioners, Medical"
Noble Dove Laundrette,PROFESSIONAL/FINANCIAL SERVICES,TW7 7QN,51.45817,-0.333724,5056994,Neutraceauticals
ANNFIELD ROAD MOTORS,AUTO RELATED,DD1 5QU,56.462832,-2.989855,5053201,Stores
 MSD Leisure 2,RETAIL SHOPS,DN31 1ED,53.565792,-0.0872,5017435,"Antique Shops-Sales, Repairs,"
 MSD Leisure 1,RETAIL SHOPS,DN31 1ED,53.565792,-0.0872,5014085,Barber and Beauty Shops
WEATHERSHEILD,PROFESSIONAL/FINANCIAL SERVICES,Dd4 9nw,56.492837,-2.934713,5043668,Neutraceauticals
Grace Hair Beauty,PROFESSIONAL/FINANCIAL SERVICES,E13 9BA,51.534538,0.034247,5018271,Dairy Products Stores
King Kebab & Pizzas,RESTAURANT,PE13 2LD,52.662827,0.163276,5046685,Neutraceauticals
FRESH FRUIT & VEGETABLES,RETAIL SHOPS,E15 2BX,51.554504,-0.005138,5052173,Vending Machines
Chippenham Fruit and veg ,SUPERMARKETS,SN15 1EX,51.459823,-2.117273,5048561,Equipment Rental and Leasing S
The Shire Fruit and Veg ,SUPERMARKETS,SN15 1EX,51.459823,-2.117273,5012182,Miscellaneous Publishing and Printing
Chippenham Fruit & Veg ,SUPERMARKETS,SN15 1EX,51.459823,-2.117273,5015629,Dry Cleaners
The Shire’s Fruit & Veg ,SUPERMARKETS,SN15 1EX,51.459823,-2.117273,5036731,Vending Machines
Frome Fruit & Veg ,SUPERMARKETS,SN15 1EX,51.459823,-2.117273,5011135,"Grocery Stores, Supermarkets"
Frome Fruit and veg,SUPERMARKETS,SN15 1EX,51.459823,-2.117273,5028502,Barber and Beauty Shops
Elite Barber Lounge,PROFESSIONAL/FINANCIAL SERVICES,BS37 4BB,51.53924,-2.413142,5015187,"Grocery Stores, Supermarkets"
Khau Galli,RESTAURANT,OL2 6AB,53.555621,-2.120311,5017282,Vending Machines
Bright Star Fireworks UK,RETAIL SHOPS,DN21 5TL,53.399422,-0.57533,5056367,Automatic Service
Falafel House,RESTAURANT,Ec4v 5ea,51.513291,-0.101627,5014924,Eating Places
Paul’s Farnworth fish bar,RESTAURANT,BL1 4QZ,53.580843,-2.448606,5024393,Stores
Bravo Pizza,RESTAURANT,B44 8JP,52.536969,-1.88897,5022760,Neutraceauticals
C & A Danter,ENTERTAINMENT,GL52 8HA,51.968794,-2.071067,5011563,"Grocery Stores, Supermarkets"
Didar,RESTAURANT,N1 1DW,51.542385,-0.117797,5012885,"Grocery Stores, Supermarkets"
Aksu Food & Wine,SUPERMARKETS,NW2 3EL,51.554713,-0.212654,5051468,"Bars, Cocktail Lounges, Discot"
EL PUEBLO,RESTAURANT,L36 9YG,53.412567,-2.839285,5051461,"Bars, Cocktail Lounges, Discot"
Top Clearance Ltd,RETAIL SHOPS,WR1 2EE,52.194182,-2.215886,5051465,"Bars, Cocktail Lounges, Discot"
Austins News 4U,RETAIL SHOPS,CR0 4NH,51.362451,-0.121851,5051463,"Bars, Cocktail Lounges, Discot"
Seven Sins,RESTAURANT,LA1 1UW,54.048059,-2.798933,5051464,Bowling Alleys
The lodge,RESTAURANT,DH3 3BJ,54.856107,-1.574165,5051460,"Bars, Cocktail Lounges, Discot"
GG’s Vape Shop,SUPERMARKETS,BS3 3LG,51.439652,-2.601625,5051466,"Bars, Cocktail Lounges, Discot"
West Street Mini Market ,SUPERMARKETS,BS3 3LG,51.439652,-2.601625,5051462,"Bars, Cocktail Lounges, Discot"
K GARDEN LTD T/A Kings Garden,RESTAURANT,SS11 8QS,51.608651,0.548686,5051006,"Bars, Cocktail Lounges, Discot"
Fast Road Conversions,AUTO RELATED,TN24 8DR,51.152627,0.883117,5051467,"Bars, Cocktail Lounges, Discot"
Pizza Box UK,RESTAURANT,B70 6HN,52.515876,-1.984542,5014950,Vending Machines
Cafe Rhubarb,RESTAURANT,BS7 8TR,51.484128,-2.586858,5018175,"Equipment, Furniture and home"
SUPER KEBAB HOUSE,RESTAURANT,N17 9QU,51.592173,-0.056433,5013458,Eating Places
BANDIDO BARBERS,PROFESSIONAL/FINANCIAL SERVICES,SK2 6ND,53.399004,-2.153933,5051664,Eating Places
New York Deli 4,RESTAURANT,NE11 9EW,54.957136,-1.651554,5017528,Eating Places
New York Deli 3,RESTAURANT,NE11 9EW,54.957136,-1.651554,5051306,Discount Stores
New York Deli 5,RESTAURANT,NE11 9EW,54.957136,-1.651554,5058006,Stores
New York Deli 1,RESTAURANT,NE11 9EW,54.957136,-1.651554,5012521,Computers/software
New York Deli 6,RESTAURANT,NE11 9EW,54.957136,-1.651554,5050497,Eating Places
New York Deli 2,RESTAURANT,NE11 9EW,54.957136,-1.651554,5016726,Motorcycle Shops and Dealers
Shackleford 3,RETAIL SHOPS,GU8 6AN,51.197375,-0.663204,5059387,Eating Places
Shackleford 2,RETAIL SHOPS,GU8 6AN,51.197375,-0.663204,5047684,Neutraceauticals
Shackleford,ENTERTAINMENT,GU8 6AN,51.197375,-0.663204,5046738,Neutraceauticals
Shackleford 4,RETAIL SHOPS,GU8 6AN,51.197375,-0.663204,5047680,Neutraceauticals
Shackleford 5,RETAIL SHOPS,GU8 6AN,51.197375,-0.663204,5047681,Neutraceauticals
Maison Maioli,RETAIL SHOPS,Sw13 0px,51.470518,-0.255279,5047685,Stores
Ince Tech,TELECOMMUNICATIONS,WN2 2AR,53.542215,-2.60642,5047683,Neutraceauticals
Efendi Dry Cleaners,PROFESSIONAL/FINANCIAL SERVICES,IG9 5ES,51.626004,0.04563,5047682,Neutraceauticals
Efendi Dry Cleaners. Brentwood,PROFESSIONAL/FINANCIAL SERVICES,IG9 5ES,51.626004,0.04563,5054566,Electronic Repair Shops
FOOD ART DIRECT,SUPERMARKETS,EN3 5TD,51.670425,-0.041182,5045149,Vending Machines
Pizza City,RESTAURANT,B19 3LE,52.487204,-1.902481,5051300,Neutraceauticals
Circus Madness Funhouse,ENTERTAINMENT,NR18 9SL,52.548959,1.083119,5012441,Dry Cleaners
Mega Spin Waltzer,ENTERTAINMENT,NR18 9SL,52.548959,1.083119,5059756,Stores
Aksu Food & Wine,SUPERMARKETS,NW2 3EL,51.554713,-0.212654,5057729,Clothing store
Kevin Frobel - Demo Account,PROFESSIONAL/FINANCIAL SERVICES,CO3 3BW,51.891222,0.892294,5011382,Telecommunication Equipment In
KING VAPE,RETAIL SHOPS,LU7 1dp,51.916059,-0.66483,5015070,Eating Places
Kintala resort & Spa ,PROFESSIONAL/FINANCIAL SERVICES,BT47 4QL,54.936194,-6.915951,5015279,Eating Places
The View Tube,RESTAURANT,E13 8HU,51.520234,0.020506,5012657,Barber and Beauty Shops
SURMA TRAVEL,TRAVEL RELATED,E1 5LP,51.519646,-0.070447,5048952,Eating Places
Desi Pakwan,RESTAURANT,G3 7RH,55.865467,-4.280943,5012488,Vending Machines
VHM auto LTD,AUTO RELATED,B18 7AF,52.48518,-1.925149,5040153,Telecommunication Equipment In
Richardsons of Woodthorpe,SUPERMARKETS,YO31 0RP,53.965389,-1.059358,5044348,Eating Places
LE RIF RESTAURANT,RESTAURANT,N7 7PX,51.561815,-0.11095,5055056,Eating Places
Chick & Chick,RESTAURANT,KT1 1ST,51.411378,-0.302065,5063572,Recreation Services-not elsewh
City Churros ,RESTAURANT,cm13pb,51.731302,0.407324,5014799,Barber and Beauty Shops
Fudge & Brownies Cabin,RESTAURANT,cm13pb,51.731302,0.407324,5025878,Vending Machines
Winter Warmers Cabin,RESTAURANT,cm13pb,51.731302,0.407324,5041768,Barber and Beauty Shops
Ginger Woo Restaurant,RESTAURANT,E17 5JF,51.590129,-0.023402,5016802,Vending Machines
Rings & Blocks,ENTERTAINMENT,M8 8RQ,53.495259,-2.232994,5017471,Barber and Beauty Shops
Prize Factory,ENTERTAINMENT,M8 8RQ,53.495259,-2.232994,5012310,Eating Places
Chai Junction,RESTAURANT,E15 2bu,51.553364,-0.002649,5058782,Eating Places
THE HOME STORE,RETAIL SHOPS,KA12 8EJ,55.612373,-4.672294,5049602,Stores
HO HO HO ,RETAIL SHOPS,KA12 8EJ,55.612373,-4.672294,5049229,Eating Places
Vapor Works ,RETAIL SHOPS,N4 2JF,51.56408,-0.103036,5012175,"Bars, Cocktail Lounges, Discot"
Archway Express,RETAIL SHOPS,N19 5NL,51.567859,-0.138776,5011010,Vending Machines
The Grill,RESTAURANT,L12 8SN,53.42892,-2.903029,5014742,Electrical Parts and Equipment
Scots Hair Design Limited,PROFESSIONAL/FINANCIAL SERVICES,NG31 6RL,52.914735,-0.642351,5034202,Vending Machines
Sisorti Coffee & Bakery,RESTAURANT,EH10 5HX,55.925919,-3.209535,5056626,Stores
Pro 9 Porsche ,AUTO RELATED,Wr114re,52.092024,-1.948582,5027149,"Grocery Stores, Supermarkets"
Braw brunch,RESTAURANT,EH3 9BH,55.94541,-3.203914,5047993,Stores
Compasses Inn,RESTAURANT,SY1 4DE,52.725655,-2.739661,5020321,Eating Places
Tasty,RESTAURANT,SW2 2TH,51.454775,-0.113268,5041863,Tourist Attractions and Exhibi
Upton fish bar ,RESTAURANT,BL1 4QZ,53.580843,-2.448606,5041862,Tourist Attractions and Exhibi
City Pizza and Kebab,RESTAURANT,DE1 1HJ,52.922638,-1.480782,5041859,Tourist Attractions and Exhibi
Zalos Cafe,RESTAURANT,WA4 6SG,53.371996,-2.581379,5029349,"Bars, Cocktail Lounges, Discot"
MAP EXPRESS CARGO N15,OTHER TRANSPORTATION,N15 5DE,51.584978,-0.078331,5011895,Eating Places
Hairlistic Limited ,PROFESSIONAL/FINANCIAL SERVICES,IP10 0BJ,52.05071,1.285195,5038851,Vending Machines
BFC ROMFORD ROAD,RESTAURANT,E7 8DF,51.547197,0.034507,5038853,Vending Machines
INDI2GO,RESTAURANT,WA13 0HR,53.381239,-2.478091,5017049,"Equipment, Furniture and home"
PASSION WEAVE AND BRAID CENTRE,PROFESSIONAL/FINANCIAL SERVICES,E10 7BH,51.56505,-0.020404,5031179,Vending Machines
William N Gimmack Chemists,HEALTH CARE,HA3 8NJ,51.592481,-0.314363,5028874,Barber and Beauty Shops
Truro Geek Retreat,RETAIL SHOPS,TR15 2EL,50.234964,-5.222244,5047677,Limousines and Taxicabs
Crosskeys Fish Bar,RESTAURANT,NP11 7PL,51.619232,-3.128839,5035850,"Grocery Stores, Supermarkets"
YNUT,RETAIL SHOPS,W5 4UX,51.495644,-0.313788,5035853,"Grocery Stores, Supermarkets"
"GDA Domestic Appliances, Beds, Furniture & carpets / south Croydon tyres and service centre ",RETAIL SHOPS,SE9 4EA,51.427176,0.045457,5037066,"Grocery Stores, Supermarkets"
Ak & Styles Ltd,RETAIL SHOPS,IG2 7EB,51.571647,0.084665,5018854,Barber and Beauty Shops
DAZZLING DECORATION,PROFESSIONAL/FINANCIAL SERVICES,E6 1hz,51.536226,0.052056,5012760,Motorcycle Shops and Dealers
Dynasty Restaurant (South Woodford) Limited  T/A Dynasty,RESTAURANT,E18 2PA,51.596695,0.021242,5029455,Vending Machines
Bath 2,RETAIL SHOPS,N4 1RL,51.580689,-0.105445,5038224,Eating Places
Chou Chou Nuts Over You Limited,RESTAURANT,N4 1RL,51.580689,-0.105445,5027685,Limousines and Taxicabs
Bath 1,RETAIL SHOPS,N4 1RL,51.580689,-0.105445,5013634,Limousines and Taxicabs
Nuts,RESTAURANT,N4 1RL,51.580689,-0.105445,5013913,Limousines and Taxicabs
Hot Drinks,RESTAURANT,N4 1RL,51.580689,-0.105445,5013629,Limousines and Taxicabs
Sultan Lebanon,SUPERMARKETS,W14 9ex,51.489755,-0.206578,5013630,Limousines and Taxicabs
Skittle Shop ,SUPERMARKETS,BS3 1EN,51.441111,-2.602567,5027682,Limousines and Taxicabs
West Street Market ,RETAIL SHOPS,BS3 1EN,51.441111,-2.602567,5049154,Legal Service
West Street Mini Market,SUPERMARKETS,BS3 1EN,51.441111,-2.602567,5017237,Neutraceauticals
Vape Zone ,RETAIL SHOPS,BS3 1EN,51.441111,-2.602567,5014439,"Bars, Cocktail Lounges, Discot"
Vape City Bristol ,RETAIL SHOPS,BS3 1EN,51.441111,-2.602567,5046609,Eating Places
ELIS,RESTAURANT,EN36YF,51.67191,-0.015213,5044179,Eating Places
phoenix grill ,RESTAURANT,PA4 8DS,55.869191,-4.400532,5043084,"Bars, Cocktail Lounges, Discot"
DGN Interiors,RETAIL SHOPS,WV2 3EL,52.569298,-2.127121,5026782,Automotive Tire Stores
Newent Plant Centre,RETAIL SHOPS,GL18 1EA,51.936353,-2.394777,5053446,"Grocery Stores, Supermarkets"
Northumbria Flooring,RETAIL SHOPS,Ne24 5su,55.131941,-1.528765,5053305,"Grocery Stores, Supermarkets"
MS Motors ,AUTO RELATED,b709eg,52.520586,-2.022122,5046776,Bakeries
Dewan - demo terminal ,ENTERTAINMENT,B75 6BG,52.570858,-1.808635,5021096,Limousines and Taxicabs
WJC Attractions 3,ENTERTAINMENT,NE22 7BR,55.156253,-1.579404,8046619,"Grocery Stores, Supermarkets"
WJC Attractions 2 ,ENTERTAINMENT,NE22 7BR,55.156253,-1.579404,5018496,Vending Machines
WJC Attractions,ENTERTAINMENT,NE22 7BR,55.156253,-1.579404,5018711,Vending Machines
WJC Attractions 4,ENTERTAINMENT,NE22 7BR,55.156253,-1.579404,5010916,Barber and Beauty Shops
4 SEASONS KEBABS,RESTAURANT,LS9 6PJ,53.801724,-1.499389,5048617,Caterers
HAREHILLS LANE CORNER STORE,SUPERMARKETS,LS9 6PJ,53.801724,-1.499389,5014906,Telecommunication Equipment In
Drove me,AUTO RELATED,IG6 3UJ,51.608441,0.121013,5028426,Dental and Medical
Organika Thai Spa,PROFESSIONAL/FINANCIAL SERVICES,RM14 2RB,51.558432,0.238312,5041844,Tourist Attractions and Exhibi
The Furniture Corner,RETAIL SHOPS,E17 7JY,51.582824,-0.027628,5056774,Vending Machines
De Baga Mehfil,RESTAURANT,LS7 3QY,53.829072,-1.53934,5049658,Eating Places
GRIND PARTNERS AND SOLUTIONS LTD,PROFESSIONAL/FINANCIAL SERVICES,N22 8XU,51.602298,-0.119477,5046376,Stores
Redlam Timbers Ltd,RETAIL SHOPS,B90 4LE,52.399047,-1.806409,5010922,Theatrical Ticket Agencies
Babylon Pizza & Balti Takeaway,RESTAURANT,BD5 7LR,53.780765,-1.760025,5043054,"Grocery Stores, Supermarkets"
BONGO BAR & RESTAURANT ,RESTAURANT,N15 4DJ,51.584324,-0.069052,5058388,Neutraceauticals
Lyons Hardware,RETAIL SHOPS,EH51 0EA,56.017248,-3.608909,5018232,"Insulation, Masonry, Plasterin"
Sykes Bar,RESTAURANT,SK15 2AB,53.483942,-2.057527,5054007,Eating Places
All About Aud,RETAIL SHOPS,BN1 4ED,50.82829,-0.139434,5055087,Vending Machines
Barbers Tune,PROFESSIONAL/FINANCIAL SERVICES,N9 0PA,51.620847,-0.062904,5048387,Neutraceauticals
WIFA ADVICE CONSULTANCY,PROFESSIONAL/FINANCIAL SERVICES,E12 6BT,51.552329,0.053228,5015543,Barber and Beauty Shops
EG Tiles and Bathrooms,RETAIL SHOPS,L31 3EU,53.509613,-2.928781,5040680,Eating Places
Solent Sky Museum,ENTERTAINMENT,SO14 3FR,50.897922,-1.392187,5057609,Barber and Beauty Shops
Fenwick Street Barbers,PROFESSIONAL/FINANCIAL SERVICES,L2 7NB,53.405458,-2.991372,5021474,Car Washes
The Christmas Shop,RETAIL SHOPS,Gu14 6La,51.277442,-0.739799,5015047,Neutraceauticals
Pizza Tribez,RESTAURANT,DY10 2DP,52.388917,-2.247703,5012275,Neutraceauticals
PRECISION CUTZ,PROFESSIONAL/FINANCIAL SERVICES,G2 3HW,55.865477,-4.265583,5035593,"Bars, Cocktail Lounges, Discot"
Third Eye Bar and Café,RESTAURANT,G2 3HW,55.865477,-4.265583,5059261,Neutraceauticals
MR & MRS BALLON,RETAIL SHOPS,E1 0RE,51.514663,-0.04434,5018307,"Freezer, Locker Meat Provision"
Petersfield Social Club,RESTAURANT,GU32 3ED,51.007352,-0.93958,5013507,"Golf Courses, Public"
New Stop,RETAIL SHOPS,B70 6JX,52.51273,-1.984396,5056818,Vending Machines
NEWBIE AND ME,RETAIL SHOPS,TF1 3AJ,52.705132,-2.516927,5051228,Eating Places
ANATOLIA FOOD,RESTAURANT,N52DN,51.552978,-0.091278,5020787,Vending Machines
Express Hand Car Wash,AUTO RELATED,L20 6BF,53.460581,-2.985667,5048100,"Freezer, Locker Meat Provision"
Hair By Demaje,PROFESSIONAL/FINANCIAL SERVICES,ME2 2BT,51.39573,0.490827,5048103,"Freezer, Locker Meat Provision"
CROSBY HAIRS CUT,PROFESSIONAL/FINANCIAL SERVICES,L23 5RE,53.490271,-3.028438,5048097,"Freezer, Locker Meat Provision"
Trimprint Ltd,RETAIL SHOPS,BT61 7BE,54.349034,-6.654246,5048095,"Freezer, Locker Meat Provision"
Horse & Groom Warley,RESTAURANT,RM14 3BU,51.55653,0.252155,5048101,"Freezer, Locker Meat Provision"
O n S,DEPARTMENT STORES,E164HB,51.51651,0.00917,5048105,"Freezer, Locker Meat Provision"
Rathfriland Road Services,OIL COMPANIES,Bt34 1ra,54.18728,-6.319062,5048107,"Freezer, Locker Meat Provision"
Olympia Electrical Wholesale LTD,RETAIL SHOPS,W14 0QL,51.493994,-0.213764,5048104,"Freezer, Locker Meat Provision"
EMAN HALAL MEAT,SUPERMARKETS,IG1 3AL,51.562502,0.063283,5048090,"Freezer, Locker Meat Provision"
SABR ENT LIMITED,RETAIL SHOPS,LE5 4EB,52.637249,-1.080095,5014572,Tobacco
Pandhan Kitchen,RESTAURANT,E1 1JH,51.517727,-0.063696,5037825,"Grocery Stores, Supermarkets"
The Foot Company Manchester City Centre ,HEALTH CARE,FY8 5DH,53.737846,-2.95676,5056668,Vending Machines
Bishopric Wine,RETAIL SHOPS,RH12 1QN,51.06446,-0.334415,5028991,Eating Places
RZ Mobile Wembley,RETAIL SHOPS,HA0 2AA,51.552223,-0.298014,5027437,Eating Places
Hidden gem antiques,RETAIL SHOPS,WS3 3SW,52.618091,-2.003738,5037182,"Grocery Stores, Supermarkets"
Head 2 Head,PROFESSIONAL/FINANCIAL SERVICES,MK40 3QS,52.138266,-0.45524,5012751,Stores
Hanover Premier ,RETAIL SHOPS,L1 4AG,53.404223,-2.982002,5046506,"Cleaning and maintenance, Jani"
LOCAL CHEESE CAVE LTD,SUPERMARKETS,SW19 1EX,51.418909,-0.191177,5056347,Computers/software
BOLTON POUND PLUS LIMITED,RETAIL SHOPS,BL1 1RF,53.579168,-2.429875,5042709,Eating Places
HI BURGER,RESTAURANT,NN1 4AW,52.241967,-0.886742,5042446,Eating Places
JMA Inflatables,PROFESSIONAL/FINANCIAL SERVICES,CB6 3QB,52.3622,0.209889,5011965,Stores
Signs Express,PROFESSIONAL/FINANCIAL SERVICES,Po6 1tq,50.836131,-1.051652,5021399,Vending Machines
BAILEYS DRYCLEANERS,PROFESSIONAL/FINANCIAL SERVICES,RM10,51.54560089,0.156617001,5026692,Barber and Beauty Shops
Lakeside Cafe,RESTAURANT,RH11 8GA,51.109921,-0.204277,5015557,Eating Places
MARTINS BUTCHERS,SUPERMARKETS,NW1 7JY,51.538245,-0.142439,5029664,"Bars, Cocktail Lounges, Discot"
Golden Scissors,PROFESSIONAL/FINANCIAL SERVICES,EX4 6RY,50.728004,-3.522132,5022369,Eating Places
LEBANESE FOOD HALL ,SUPERMARKETS,NW10 7LF,51.526891,-0.26744,5014947,Eating Places
LEBANESE FOOD HALL LTD TAKEAWAY,RESTAURANT,NW10 7LF,51.526891,-0.26744,5035082,"Grocery Stores, Supermarkets"
P C Automotive,AUTO RELATED,CM9 6TR,51.724093,0.666099,5017418,Vending Machines
The Pantry,RESTAURANT,MK42 8BG,52.121133,-0.488873,5012988,Neutraceauticals
Simply Plumbing Solutions ,RETAIL SHOPS,BR1 5HS,51.427745,0.013127,5041285,Caterers
Al Baraka,RETAIL SHOPS,BT2 7HF,54.590839,-5.933512,5016932,"Grocery Stores, Supermarkets"
The Touch Of Cashmere,SUPERMARKETS,E8 2NS,51.549278,-0.074949,5055300,"Automotive Parts, Accessories"
POUND PLUS,SUPERMARKETS,E8 2NS,51.549278,-0.074949,5028172,Eating Places
Verve Bar,RESTAURANT,TS24 7DN,54.686955,-1.205079,5059842,Eating Places
Amadeus Main Bar 2,RESTAURANT,TS24 7DN,54.686955,-1.205079,5017682,Travel
Kingpin Bar,RESTAURANT,TS24 7DN,54.686955,-1.205079,5018356,"Grocery Stores, Supermarkets"
Amadeus Far Bar 2,RESTAURANT,TS24 7DN,54.686955,-1.205079,5013167,Automatic Service
Kingpin Control,ENTERTAINMENT,TS24 7DN,54.686955,-1.205079,5045704,Limousines and Taxicabs
Amadeus Main Bar 1,RESTAURANT,TS24 7DN,54.686955,-1.205079,5052348,Eating Places
Amadeus Door,RESTAURANT,TS24 7DN,54.686955,-1.205079,5045817,Eating Places
Amadeus Far Bar 1,RESTAURANT,TS24 7DN,54.686955,-1.205079,5057268,Stores
Amadeus Bar,RESTAURANT,TS24 7DN,54.686955,-1.205079,5014963,Neutraceauticals
Hustlers Bar,RESTAURANT,TS24 7DN,54.686955,-1.205079,5045071,"Bars, Cocktail Lounges, Discot"
Chez Marcel Creperie,RESTAURANT,Bs1 2ep,51.45558,-2.593962,5034794,Vending Machines
Novacraft Furniture,RETAIL SHOPS,CF32 9BT,51.545804,-3.597615,5047046,Stores
Nova Cafe Lounge,RESTAURANT,NW106DT,51.52698,-0.250368,5054063,Vending Machines
LULYANA CAFE,RESTAURANT,N17 0JS,51.602209,-0.064709,5039116,Barber and Beauty Shops
Milcana Cafe,RESTAURANT,N17 0JS,51.602209,-0.064709,5014597,"Clothing Rental-Costumes, Unif"
POUND CITY,RETAIL SHOPS,E15 1NG,51.541677,0.001901,5023222,Barber and Beauty Shops
XXL AUTO HOUSE LIMITED,AUTO RELATED,UB5 5QJ,51.545862,-0.362301,5029495,Neutraceauticals
Crayford Computers,PROFESSIONAL/FINANCIAL SERVICES,DA1 4EF,51.453317,0.17683,5051413,Eating Places
 Little Italy Pizza,RESTAURANT,RM8 1UU,51.562344,0.123037,5056169,Stores
TH Motorcycle,RETAIL SHOPS,N18 3bd,51.615013,-0.044592,5018239,Eating Places
MATIZ,RESTAURANT,SE1 6JZ,51.49791,-0.104183,5054012,Barber and Beauty Shops
Cheese,RETAIL SHOPS,G40 4ES,55.83666,-4.221203,5064745,Barber and Beauty Shops
St Enoch - Cheese Hut,RETAIL SHOPS,G40 4ES,55.83666,-4.221203,5048391,Stores
Swing Grill,RETAIL SHOPS,G40 4ES,55.83666,-4.221203,5017324,Eating Places
Chocolate Kisses,RETAIL SHOPS,G40 4ES,55.83666,-4.221203,5015269,Funeral Service and Crematorie
Ferris Wheel,ENTERTAINMENT,G40 4ES,55.83666,-4.221203,5059834,Books
Decorations,RETAIL SHOPS,G40 4ES,55.83666,-4.221203,5035465,Neutraceauticals
Dutch Pancakes,RETAIL SHOPS,G40 4ES,55.83666,-4.221203,5012062,Stores
Moi Lavish ,PROFESSIONAL/FINANCIAL SERVICES,IG1 1TF,51.561094,0.082898,5049145,Towing Services
Calm Indian Cow,RESTAURANT,WC1E 6DP,51.52012,-0.129826,5051855,Vending Machines
CONVENIENCE STORE,RETAIL SHOPS,BN11 1QH,50.811035,-0.373123,5060097,Eating Places
Alexandra Dry Cleaner,PROFESSIONAL/FINANCIAL SERVICES,N22 7RS,51.599103,-0.124146,5060283,Telecommunication Equipment In
SHM Clothings,RETAIL SHOPS,WC2A 2JR,51.514455,-0.111772,5053449,Vending Machines
SHM Clothing,RETAIL SHOPS,WC2A 2JR,51.514455,-0.111772,5018639,Vending Machines
Fonehouse,TELECOMMUNICATIONS,E2 6LT,51.527884,-0.062456,5023514,Eating Places
Kave Hammersmith,RESTAURANT,W12 8qq,51.502878,-0.223805,5035402,Car Washes
Kave Shepherd bush,RESTAURANT,W12 8qq,51.502878,-0.223805,5018890,"Dance Halls, Schools, and Stud"
Md Barbers,PROFESSIONAL/FINANCIAL SERVICES,Rm5 3aa,51.585071,0.172207,8046821,"Hotels, motels, resorts"
Golden City,RESTAURANT,CM21 9AR,51.812749,0.149306,5050696,"Grocery Stores, Supermarkets"
Shelly's Cafe,RESTAURANT,BS35 2AT,51.60664,-2.525464,5051603,Eating Places
Phone palace,TELECOMMUNICATIONS,DH9 0TY,54.86858,-1.700526,5060562,Neutraceauticals
YouJuice,RESTAURANT,BN3 1AU,50.82417,-0.158042,5015931,Stores
The Oriental,RESTAURANT,WA10 6SG,53.461744,-2.755847,5015929,Stores
GLOBAL DECORATION LTD,ENTERTAINMENT,SE1 6SN,51.491884,-0.100676,5053881,Vending Machines
Bellissima Hair And Beauty,PROFESSIONAL/FINANCIAL SERVICES,SG4 7AS,51.957013,-0.168565,5026948,Eating Places
Broadbridge Heath Cafe,RESTAURANT,RH12 3TQ,51.067401,-0.356675,5017612,Stores
Custom Ink,PROFESSIONAL/FINANCIAL SERVICES,CB1 7AJ,52.188028,0.142885,5059175,Vending Machines
Beach Bites Catering,RESTAURANT,PA18 6DA,55.887169,-4.891287,5058319,Eating Places
13 Roses,PROFESSIONAL/FINANCIAL SERVICES,W3 9by,51.50803,-0.274358,5022953,"Bars, Cocktail Lounges, Discot"
Rumours,RESTAURANT,PL14 4BH,50.453264,-4.465076,5024141,Vending Machines
Elevenses Café,RESTAURANT,MK40 1LD,52.137911,-0.467994,5012471,Vending Machines
REEVES LEISURE LTD,ENTERTAINMENT,WA3 3ST,53.481601,-2.607606,5059083,Eating Places
Anthony Foodstuff,RESTAURANT,L13 3BN,53.415387,-2.91657,5046797,Vending Machines
The Brewers Arms,RESTAURANT,TA13 5BW,50.949277,-2.809261,5016061,"Hat Cleaning Shops, Shoe Repairs"
Jerk Hut Catering,RESTAURANT,BH6 3SS,50.722439,-1.816181,5038024,Eating Places
Safe Handz Domestix,RETAIL SHOPS,RM9 4QS,51.534957,0.110803,5045574,Vending Machines
Skye’s Burger and Fries ,RESTAURANT,EN8 7NX,51.684174,-0.024702,5033661,Neutraceauticals
Bohdi Aesthetics & Nail Spa ,PROFESSIONAL/FINANCIAL SERVICES,E15 1XQ,51.541947,0.00135,8046244,Vending Machines
Kharoti Fruit and Vegetables,SUPERMARKETS,E10 5PW,51.560146,-0.008918,5049862,Caterers
 J Franks Interiors,RETAIL SHOPS,CM2 0HX,51.730073,0.472888,5049864,Caterers
North Sea Fish Restaurant,RESTAURANT,N20 9HR,51.631976,-0.175878,5049865,Caterers
Cow Stall,ENTERTAINMENT,RH1 5QL,51.20321,-0.14766,5049520,Caterers
The Cube,ENTERTAINMENT,RH1 5QL,51.20321,-0.14766,5015190,Computers/software
Octopus Stall,ENTERTAINMENT,RH1 5QL,51.20321,-0.14766,5013719,Barber and Beauty Shops
Tracey Estate Limited,RESTAURANT,EX14 3NW,50.805945,-3.209067,5036057,Theatrical Ticket Agencies
SULTAN SHAWARMA,RESTAURANT,BB2 2DH,53.746519,-2.486201,5035659,Barber and Beauty Shops
Coffee & Donuts,RESTAURANT,Bs37 6pw,51.563915,-2.380603,5017558,"Grocery Stores, Supermarkets"
Carvery,RESTAURANT,Bs37 6pw,51.563915,-2.380603,5016176,"Grocery Stores, Supermarkets"
FURNITURE ZONE,RETAIL SHOPS,IG11 8AW,51.536601,0.076746,5060056,"Freezer, Locker Meat Provision"
SICILY THAT ‘s IT,RESTAURANT,SW20 9NU,51.405017,-0.219504,5026808,"Game, Toy, and Hobby Shops"
The lodge hair dressing ,PROFESSIONAL/FINANCIAL SERVICES,NR20 3AT,52.678144,0.956238,5051832,Vending Machines
David Thomas,OTHER TRANSPORTATION,EX15 1ST,50.858235,-3.394004,5026455,Neutraceauticals
Wantage Vape Sone ,SUPERMARKETS,OX12 8AD,51.588307,-1.425979,5055357,Barber and Beauty Shops
Vape Zone ,SUPERMARKETS,OX12 8AD,51.588307,-1.425979,5041313,Stores
Unique supermarket ,SUPERMARKETS,OX12 8AD,51.588307,-1.425979,5057999,Eating Places
Amoza Barbers,PROFESSIONAL/FINANCIAL SERVICES,SA2 0UY,51.627481,-3.97374,5040970,Vending Machines
Parsons Motorcycles,RETAIL SHOPS,Ba3 3at,51.298286,-2.454766,5014700,Barber and Beauty Shops
TASTE OF ETHIOPIA,RESTAURANT,SW9 8PB,51.46382,-0.113125,5015598,Eating Places
LIGHT OF AFRICA ,RESTAURANT,SW9 8PB,51.46382,-0.113125,5037751,"Bars, Cocktail Lounges, Discot"
LONDON TAXI DR40,OTHER TRANSPORTATION,E13 8eb,51.523098,0.022434,5012366,Bakeries
LONDON TAXI DR9,OTHER TRANSPORTATION,E13 8eb,51.523098,0.022434,5048985,"Bars, Cocktail Lounges, Discot"
LONDON TAXI DR12,OTHER TRANSPORTATION,E13 8eb,51.523098,0.022434,5054969,Eating Places
LONDON TAXI DR4,OTHER TRANSPORTATION,E13 8eb,51.523098,0.022434,5011561,"Bars, Cocktail Lounges, Discot"
LONDON TAXI DR5,OTHER TRANSPORTATION,E13 8eb,51.523098,0.022434,5053031,Eating Places
LONDON TAXI DR37,OTHER TRANSPORTATION,E13 8eb,51.523098,0.022434,5052609,Eating Places
Mannu Law Ltd,PROFESSIONAL/FINANCIAL SERVICES,MK40 3HZ,52.138062,-0.465782,5014978,Eating Places
Steve’s Groceries ,RETAIL SHOPS,DY3 1SA,52.540444,-2.120898,5056258,Eating Places
Cats Back,RESTAURANT,SW181PP,51.462264,-0.200563,5056415,Dental/Laboratory/Medical/Opht
Taj Al Sham restaurant 1,RESTAURANT,W3 7QS,51.506183,-0.259514,5027981,Eating Places
TAJ AL SHAM RESTAURANT ,RESTAURANT,W3 7QS,51.506183,-0.259514,8046609,Stores
Woodhouses Cricket Club,RESTAURANT,M35 9NG,53.500131,-2.142407,5042747,Barber and Beauty Shops
Ibraheem Tyres,AUTO RELATED,B9 5RH,52.477948,-1.84617,5015894,Automatic Service
Bristol 24 Hrs Ltd ,SUPERMARKETS,BS1 3QY,51.462831,-2.589651,5022664,"Grocery Stores, Supermarkets"
Bristol 24 Hrs Ltd,SUPERMARKETS,BS1 3QY,51.462831,-2.589651,5048280,Other Services
Yildirim bakery,SUPERMARKETS,E17 7PJ,51.580697,-0.032714,5021531,Barber and Beauty Shops
Jiwan Taxi,OTHER TRANSPORTATION,BS5 7HS,51.46174,-2.539415,5035550,Stores
Roots Organic Shop,SUPERMARKETS,NG7 3HG,52.955818,-1.175085,5054359,Barber and Beauty Shops
MOREDUN SPICE,RESTAURANT,Eh6 6hj,55.975775,-3.17848,5020853,Automobile and Truck Dealers
TREACLE BAR & KITCHEN,RESTAURANT,Eh6 6hj,55.975775,-3.17848,5020547,Eating Places
lox hairdressing,PROFESSIONAL/FINANCIAL SERVICES,Fk5 3eh,56.017473,-3.829948,5036671,General Contractors-Residential
Thomas Catering,PROFESSIONAL/FINANCIAL SERVICES,TN15 7RR,51.305244,0.33243,5057730,"Antique Shops-Sales, Repairs,"
Mobile and Vape Shop,TELECOMMUNICATIONS,Tw1 3sn,51.446409,-0.32877,5018218,Stores
Medazur Medical Clinic,HEALTH CARE,E11 3AA,51.568582,0.011551,5013832,Automatic Service
Sizzler,ENTERTAINMENT,PO6 1RU,50.842375,-1.03461,5012292,Automatic Service
Mazing Bistro Cafe,RESTAURANT,N17 9QU,51.592173,-0.056433,5042819,Stores
Cee Jays Diner,RESTAURANT,WN6 0JH,53.587716,-2.665656,5062261,"Equipment, Furniture and home"
sp frangrances,RETAIL SHOPS,B79 9DW,52.65748,-1.692124,5015987,Stores
Merioneth County Show,ENTERTAINMENT,LL52 0BS,52.919505,-4.236043,5036444,Vending Machines
Sara Euro Supermarket ,SUPERMARKETS,BR1 4PQ,51.423878,-0.003165,5060748,Barber and Beauty Shops
Daddy Cools Chilli Sauce,RETAIL SHOPS,SK13 1JX,53.472958,-1.963262,5027387,"Candy, Nut, Confectionery Stor"
Millennium Balti,PROFESSIONAL/FINANCIAL SERVICES,CV31 3AG,52.284559,-1.532094,5034401,Vending Machines
Maggie's HK Dim Sum & Snacks,RESTAURANT,WN8 6TS,53.562437,-2.771048,5059927,Vending Machines
ISTANBUL KEBAB,RESTAURANT,B61 7DN,52.332404,-2.063521,5027592,Barber and Beauty Shops
Duke St Express,RETAIL SHOPS,L1 5AA,53.401617,-2.981927,5023524,Stores
Gemma at The Link,PROFESSIONAL/FINANCIAL SERVICES,HD3 3DU,53.653138,-1.816484,5036661,Neutraceauticals
Beauty Box,PROFESSIONAL/FINANCIAL SERVICES,S1 4PF,53.376352,-1.473032,5058629,Eating Places
Cheam Car Wash,AUTO RELATED,SM1 2NB,51.373063,-0.206892,5020883,Barber and Beauty Shops
4 You Express ,RETAIL SHOPS,N1 5TD,51.538555,-0.079235,5026005,Vending Machines
4 You Express,RETAIL SHOPS,N1 5TD,51.538555,-0.079235,5029427,Vending Machines
Back to the 80s,RESTAURANT,SK15 2AA,53.483716,-2.058324,5025262,Stores
McCluskey's,RETAIL SHOPS,KT1 2SE,51.403469,-0.299892,5059142,Vending Machines
C J HIGGINS BUTCHERS LIMITED,SUPERMARKETS,B63 3TA,52.454244,-2.054898,5027562,Plumbing and Heating Equipment
3 Hammers Golf Academy,ENTERTAINMENT,WV10 7PP,52.650683,-2.126752,5022150,Barber and Beauty Shops
Dixy Chicken & Pizza,RESTAURANT,M30 0PF,53.482931,-2.352501,5014982,Automatic Service
Penn Palace,RESTAURANT,WV4 4DF,52.560609,-2.15412,5057429,Furniture-Reupholstery and Rep
Manchester Fresh Shawarma,RESTAURANT,M14 5AJ,53.453428,-2.223717,5010781,Vending Machines
Geordie Banger Company 4,SUPERMARKETS,NE28 8TW,55.00867,-1.551993,5011252,Pharmacy
Geordie Banger Company 6,SUPERMARKETS,NE28 8TW,55.00867,-1.551993,5011203,Pharmacy
Geordie Banger Company 3,SUPERMARKETS,NE28 8TW,55.00867,-1.551993,5035600,Car Washes
Geordie Banger Company 2,SUPERMARKETS,NE28 8TW,55.00867,-1.551993,5071306,Stores
Geordie Banger Company 5,SUPERMARKETS,NE28 8TW,55.00867,-1.551993,5056832,Vending Machines
Geordie Banger Company Grainger Market (Fresh) ,SUPERMARKETS,NE28 8TW,55.00867,-1.551993,5016509,Stores
Geordie Banger Company (Amble),SUPERMARKETS,NE28 8TW,55.00867,-1.551993,5035765,Stores
Geordie Banger Company Grainger Market ( Hot ),SUPERMARKETS,NE28 8TW,55.00867,-1.551993,5041915,Tourist Attractions and Exhibi
Geordie Banger Company 1,SUPERMARKETS,NE28 8TW,55.00867,-1.551993,5023125,Eating Places
The Vape Cartel,RETAIL SHOPS,Dy5 1uu,52.486388,-2.105499,5013713,Durable Goods-not elsewhere cl
KJ TOWN MARKET,SUPERMARKETS,N13 4XE,51.616389,-0.109755,5012744,Eating Places
GJ5 Aalupuri & Eggs,RESTAURANT,SO14 3HQ,50.901574,-1.399363,5061221,Stores
Thai Crystal 2,RESTAURANT,SE19 1TQ,51.419882,-0.082102,5018703,Vending Machines
Thai Crystal,RESTAURANT,SE19 1TQ,51.419882,-0.082102,5018659,Neutraceauticals
K&M Halal Meat,SUPERMARKETS,UB3 2AA,51.507476,-0.418812,5046696,Barber and Beauty Shops
Windrush Flooring Ltd,RETAIL SHOPS,Ox28 5ap,51.787424,-1.502063,5071248,Automatic Service
Karicka Cleans Limited,PROFESSIONAL/FINANCIAL SERVICES,B21 0SA,52.501834,-1.933739,8046275,Eating Places
TECH WORLD,RETAIL SHOPS,SS12 9AQ,51.611929,0.519982,5039784,Neutraceauticals
YADUVANSHI,RESTAURANT,EH8 8FR,55.951394,-3.183987,5010933,Automatic Service
YADUVANSHI INDIAN RESTAURANT,RESTAURANT,EH8 8FR,55.951394,-3.183987,5053389,Vending Machines
Designer Rail,RETAIL SHOPS,WV16 4QP,52.535941,-2.421953,5012567,Automatic Service
India garden ,RESTAURANT,WA6 7AH,53.29655,-2.725185,5048865,Eating Places
Trimz Barbershop 2,PROFESSIONAL/FINANCIAL SERVICES,WV14 0HH,52.563881,-2.082303,5018460,Vending Machines
Bush Farm Catering,RESTAURANT,Ex8 4np,50.631923,-3.398976,5038593,Neutraceauticals
The Red Cow,RESTAURANT,CF39 8PP,51.58436,-3.417951,5021194,"Accounting, Auditing, and Book"
Unsigned Stage Productions Ltd,RESTAURANT,GL56 0RG,51.964056,-1.741568,5036815,"Equipment, Furniture and home"
KATHS CAFE,RESTAURANT,B14 5NJ,52.407523,-1.889397,5044840,Barber and Beauty Shops
THE EVERY DAY MINI MARKET,SUPERMARKETS,CV2 4HG,52.410279,-1.485997,5059485,Eating Places
Dope Birdz,RESTAURANT,SW15 3AW,51.454436,-0.223929,5015466,Neutraceauticals
Ahmed Butcher,RETAIL SHOPS,M40 2tp,53.497639,-2.183431,5058815,"Grocery Stores, Supermarkets"
Deep Catering,PROFESSIONAL/FINANCIAL SERVICES,UB1 2UP,51.523251,-0.370486,5031259,"Freezer, Locker Meat Provision"
PARK VIEW EXPRESS,SUPERMARKETS,LE4 6BS,52.649687,-1.118703,5031755,Schools and education
Car Audio Electrical,AUTO RELATED,LU4 9FZ,51.897438,-0.463669,5071262,Eating Places
Tasty Cafe Take Away,RESTAURANT,SE9 5DA,51.450041,0.054452,5012192,Recreation Services-not elsewh
IshCream Delights,RESTAURANT,N4 2HF,51.570535,-0.091523,5030387,Eating Places
Al-Safa,TRAVEL RELATED,nw5 4eb,51.549657,-0.151779,5033389,Eating Places
DRUM BEAT,SUPERMARKETS,E106RA,51.570816,-0.008711,5032976,Eating Places
A&C-Autos,AUTO RELATED,IP1 2DW,52.055753,1.139289,5040720,Plumbing and Heating Equipment
Zerah Cabs,OTHER TRANSPORTATION,PR1 7ER,53.76786,-2.711013,5039319,Plumbing and Heating Equipment
MERISUDO,RESTAURANT,N7 8GR,51.551308,-0.113676,5061269,Telecommunication Equipment In
STOLEN LAMB,RESTAURANT,SK9 5AA,53.326219,-2.233619,5036097,"Grocery Stores, Supermarkets"
Barefoot Herbs,RETAIL SHOPS,TN38 0AH,50.851152,0.537624,5021159,"Grocery Stores, Supermarkets"
GUNEY FOOD & WINE,RETAIL SHOPS,N18 2xz,51.614469,-0.06591,5058404,Jewelry
carousel bar,RESTAURANT,DN7 6HL,53.588243,-0.962889,5040018,Stores
Sleems Fish Bar & Kebab House,RESTAURANT,WS1 3HS,52.57297,-1.978266,5046552,Vending Machines
Home Store,RETAIL SHOPS,MK3 6AQ,51.994272,-0.758344,5039952,Clothing store
rose of bengal,RESTAURANT,CV6 3BU,52.422327,-1.520399,5045111,"Bars, Cocktail Lounges, Discot"
Super Tonic Shaq ,PROFESSIONAL/FINANCIAL SERVICES,BS6 5NX,51.466475,-2.580154,5045108,"Bars, Cocktail Lounges, Discot"
HARRIS KILT COMPANY,RETAIL SHOPS,BT12 5EY,54.590127,-5.936549,5045109,"Bars, Cocktail Lounges, Discot"
Sharp Line,PROFESSIONAL/FINANCIAL SERVICES,GU1 4AE,51.236197,-0.573917,5049608,"Candy, Nut, Confectionery Stor"
Ikeh Foods Limited,RETAIL SHOPS,B19 1AT,52.500458,-1.922908,5027046,Eating Places
Korean Garden Restaurant,RESTAURANT,CV1 2JP,52.403274,-1.50016,5012971,Barber and Beauty Shops
Lee’s aesthetics,PROFESSIONAL/FINANCIAL SERVICES,BR7 6DL,51.422806,0.061328,5052458,Stores
Ajmeer Manzil ,RESTAURANT,OL2 6QJ,53.566469,-2.122322,5041174,Vending Machines
HABIBI STYLIST,PROFESSIONAL/FINANCIAL SERVICES,SL1 1TX,51.507337,-0.584601,5025271,Tobacco
Habibi Hair & Beauty ,PROFESSIONAL/FINANCIAL SERVICES,SL1 1TX,51.507337,-0.584601,5059810,Neutraceauticals
VRS (LONDON) LTD,AUTO RELATED,RG4 7DH,51.470978,-0.987455,5051807,Vending Machines
Onion Garden,RESTAURANT,SW1E 6AB,51.498096,-0.13711,5022281,"Candy, Nut, Confectionery Stor"
W E Pinder & Son limited,PROFESSIONAL/FINANCIAL SERVICES,LN5 7DB,53.225414,-0.541339,5036556,"Bars, Cocktail Lounges, Discot"
EAST LONDON BOOK SHOP,RETAIL SHOPS,E1 1DT,51.517756,-0.066129,5015823,Stores
Coffee Shop,RETAIL SHOPS,NE33 2JZ,55.003075,-1.417168,5016012,Eating Places
Funky Yak,RETAIL SHOPS,E16AA,51.519178,-0.075901,5020554,Eating Places
S&D Recovery,AUTO RELATED,BN41 2TA,50.845043,-0.223543,5048630,Clothing store
crepes & crumble,RESTAURANT,cm13pb,51.731302,0.407324,5016905,Real Estate Agents and Manager
DS’S PITSTOP,RESTAURANT,FY1 5AA,53.811984,-3.054627,5071342,Eating Places
Horn Lane Computers,TELECOMMUNICATIONS,W3 9ED,51.516189,-0.267961,5071281,Service stations
Antalya,RESTAURANT,BS49 5DG,51.370129,-2.810053,5044505,Vending Machines
OCEAN POKE,RESTAURANT,Sw6 3dw,51.46922,-0.199176,5012259,Childrens and Infants wear store
SARK,RESTAURANT,Da1 3en,51.447252,0.198259,5014584,Vending Machines
Super Star Car Wash,AUTO RELATED,LU2 8JS,51.896388,-0.383299,5047560,Recreation Services-not elsewh
Latin Explosion,ENTERTAINMENT,EH6 8AE,55.968955,-3.166579,5047498,Neutraceauticals
SANDYFORD LODGE,LODGING,G3 7SL,55.865942,-4.282442,5047480,Stores
SUNDARBAM MEAT & FISH BAZAR,SUPERMARKETS,E12 6EA,51.552661,0.052668,5013153,Bakeries
PIZZA TOWN E16,RESTAURANT,E16 2JJ,51.499761,0.063241,5039834,Stores
Today's Local,RETAIL SHOPS,CR0 2LX,51.37502,-0.094982,5053674,Tobacco
Anglia Bearing Company Boston,RETAIL SHOPS,PE3 8RF,52.598813,-0.268984,5012848,"Bars, Cocktail Lounges, Discot"
Anglia Bearing Company,RETAIL SHOPS,PE3 8RF,52.598813,-0.268984,5023924,"Bars, Cocktail Lounges, Discot"
ITALIANO PIZZERIA KEBAB AND PASTA,RESTAURANT,B69 2HR,52.514061,-2.04708,5012851,"Bars, Cocktail Lounges, Discot"
Brook Street Cafe & Bistro,RESTAURANT,CH1 3DZ,53.194981,-2.886309,5012855,"Bars, Cocktail Lounges, Discot"
Blazing Limited,RETAIL SHOPS,Bl3 4nn,53.570689,-2.47168,5039407,Barber and Beauty Shops
Yummy,RESTAURANT,CT11 9TJ,51.338094,1.406209,5012394,Courier Services-Air and Ground
Spice Hut,RESTAURANT,BD12 0TN,53.754775,-1.771123,5025903,Eating Places
THE HORNSEY ARMS LTD,RESTAURANT,N16 5BS,51.56732,-0.083335,5037425,Vending Machines
Dutch Delites,RESTAURANT,RG12 9SF,51.405468,-0.743615,5058730,Vending Machines
Royce Rolls - GB465942947,RESTAURANT,Bs1 1jq,51.454404,-2.593529,5012203,Barber and Beauty Shops
Fresh & Healthy,RESTAURANT,E16 1EW,51.517748,0.013449,5036317,Stores
KD's Kitchen,RESTAURANT,PR1 4BA,53.75745,-2.683078,5051907,Eating Places
MY TAILOR,PROFESSIONAL/FINANCIAL SERVICES,EH48 2AB,55.901551,-3.649141,5043487,Eating Places
The Cottage Cafe & fish bar,RESTAURANT,PA43 7JJ,55.7566,-6.287921,8046579,Hardware Stores
Dixy Chicken,RESTAURANT,M14 5TB,53.456722,-2.225616,5060713,Eating Places
Pimentos,RETAIL SHOPS,WV14 0JX,52.557916,-2.075404,5047915,Leather Goods and Luggage Stor
Di Giorgio,RESTAURANT,EH3 5EA,55.962206,-3.199998,5038288,Tobacco
PENNINE CATERERS LTD 2,PROFESSIONAL/FINANCIAL SERVICES,BL9 5BN,53.598581,-2.293475,5030860,Eating Places
PENNINE CATERERS LTD 3,PROFESSIONAL/FINANCIAL SERVICES,BL9 5BN,53.598581,-2.293475,5029990,Limousines and Taxicabs
PENNINE CATERERS LTD 4,PROFESSIONAL/FINANCIAL SERVICES,BL9 5BN,53.598581,-2.293475,5042690,Electronic Repair Shops
Pennine Caterers LTD,PROFESSIONAL/FINANCIAL SERVICES,BL9 5BN,53.598581,-2.293475,5035185,Stores
iProFix-Chiswick,PROFESSIONAL/FINANCIAL SERVICES,Wc2h 9jq,51.514897,-0.123615,5057734,Neutraceauticals
Le Soleil,PROFESSIONAL/FINANCIAL SERVICES,WF16 0AJ,53.708675,-1.666337,5057741,Eating Places
Jafri - demo account ,ENTERTAINMENT,RG2 8PT,51.415738,-0.962375,5056672,"Grocery Stores, Supermarkets"
Alanya Turkish Barbers 2,PROFESSIONAL/FINANCIAL SERVICES,G21 3HN,55.881761,-4.207023,5045568,Caterers
United Food Store,SUPERMARKETS,M30 0WA,53.483426,-2.3466,5018469,Vending Machines
Insaf Halal Meat & Foods,SUPERMARKETS,E7 8DA,51.54585,0.031708,5017414,Vending Machines
Aqua Fresh Fish ltd,SUPERMARKETS,UB6 9QA,51.528699,-0.354829,5059935,"Hotels, motels, resorts"
Fun & Games,RETAIL SHOPS,NE13 7JU,55.055082,-1.669724,5058670,Eating Places
Big Singh's Pizza Kingstanding,RESTAURANT,B44 9QN,52.557372,-1.884774,5064600,Automatic Service
London vape bar ltd ,RETAIL SHOPS,N17 7NA,51.606944,-0.091214,5046964,Eating Places
Pro Coif,PROFESSIONAL/FINANCIAL SERVICES,N11 3DA,51.613007,-0.157732,5064029,Vending Machines
MGX Motors Ltd,AUTO RELATED,DE24 8AJ,52.910382,-1.446237,5030093,Vending Machines
Pizzaland Rand,RESTAURANT,L11 9AZ,53.451611,-2.903752,5040412,Vending Machines
Adam's Sandwich Bar,RESTAURANT,M5 5EG,53.484522,-2.310591,5038994,Car Washes
SHEENZ,PROFESSIONAL/FINANCIAL SERVICES,RM8 1YT,51.56204,0.123035,5037719,Neutraceauticals
Blue anchor inn,RESTAURANT,Cf62 3dd,51.391245,-3.387969,5059109,Eating Places
The Blue Anchor Inn Pub,RESTAURANT,Cf62 3dd,51.391245,-3.387969,5064649,Eating Places
BETHS ALLEN LTD,SUPERMARKETS,BT147AA,54.609923,-5.947745,5064647,Eating Places
Carousel bars (SW) ltd,RESTAURANT,EX2 8PW,50.69932,-3.523908,5066316,Eating Places
KALIMERA RESTAURANT,RESTAURANT,SK8 1AA,53.393935,-2.216788,5065342,Neutraceauticals
The George,RESTAURANT,WF5 8NW,53.678395,-1.581363,5052246,Eating Places
Alzain Restaurant,RESTAURANT,W3 6NG,51.506382,-0.264449,8046325,Pharmacy
ALZAIN RESTAURANT & LOUNGE,RESTAURANT,W3 6NG,51.506382,-0.264449,5065683,Eating Places
FishGuard Arms,RESTAURANT,SA61 2AA,51.802279,-4.968626,5064615,Telecommunication Equipment In
Smiles By Sunny,HEALTH CARE,W1T 6EB,51.523815,-0.140544,5064682,Caterers
Bengal Aroma,RESTAURANT,HD5 8UU,53.632995,-1.747416,5017289,Vending Machines
Kajals Couture,RETAIL SHOPS,NW9 8SL,51.574218,-0.26199,5066036,Eating Places
PEACE & LOVE BEAUTY SALON,PROFESSIONAL/FINANCIAL SERVICES,NG7 5GN,52.9691,-1.173194,5064885,Bakeries
mitcham tyres,AUTO RELATED,CR4 4LA,51.400117,-0.167047,5053698,"Bars, Cocktail Lounges, Discot"
Bridge Shop,SUPERMARKETS,IP3 8EE,52.047853,1.18073,5050918,"Bars, Cocktail Lounges, Discot"
Hollyfields Conference & Sports Centre 1,PROFESSIONAL/FINANCIAL SERVICES,B90 4AA,52.404286,-1.822026,5071454,Vending Machines
Hannas Head Office,PROFESSIONAL/FINANCIAL SERVICES,DN32 9TH,53.55617,-0.067851,5042453,"Grocery Stores, Supermarkets"
SUNNAH CLOTHES LIMITED,RETAIL SHOPS,CR0 2RF,51.379681,-0.104549,5063843,Neutraceauticals
Mimi Nails,PROFESSIONAL/FINANCIAL SERVICES,BS1 3RD,51.463188,-2.590087,5018295,Stores
AFFORDABLE PREMIUM CARS LTD,AUTO RELATED,LS11 0HS,53.764865,-1.582659,5064556,Vending Machines
Ogdens Takeaway,RESTAURANT,GL2 2GA,51.815778,-2.277712,5050151,Bakeries
CROWN INTERIOR DESIGN LTD,PROFESSIONAL/FINANCIAL SERVICES,WV2 2BB,52.572026,-2.114587,5028430,Stores
Finchingfield Antiques ,RETAIL SHOPS,CM7 4JX,51.968649,0.450018,5062247,Automatic Service
Jim Edwards,RETAIL SHOPS,BN7 3PT,50.901843,-0.008673,5064829,General Contractors-Residential
K and R Autos,AUTO RELATED,S80 2HP,53.302678,-1.1177,5041475,"Grocery Stores, Supermarkets"
GMB AUTO SERVICES LIMITED,AUTO RELATED,LA3 1UT,54.061309,-2.883222,5053451,"Grocery Stores, Supermarkets"
DISCOUNTS DIRECT LTD,RETAIL SHOPS,SW9 8JR,51.462477,-0.113497,5029837,"Grocery Stores, Supermarkets"
Discounts Direct.,RETAIL SHOPS,SW9 8JR,51.462477,-0.113497,5045453,Stores
Birks Motor Works,AUTO RELATED,HP27 9DT,51.719894,-0.842425,5038131,Stores
MEZ TURKISH RESTAURANT,RESTAURANT,SS8 7AJ,51.521303,0.592344,5064621,Caterers
Desi Boys Barbers,PROFESSIONAL/FINANCIAL SERVICES,IG1 4BL,51.562241,0.077654,5057155,Eating Places
Mr nut,RETAIL SHOPS,NW10 4TD,51.533195,-0.24083,5057466,"Grocery Stores, Supermarkets"
Sheriff's Pizza,RESTAURANT,DY1 3AD,52.511013,-2.089153,5037173,"Equipment, Furniture and home"
CHENLIANG888 LIMITED T/A China Royal,RESTAURANT,OL11 3AQ,53.593673,-2.181671,5052174,Eating Places
Top Fade Turkish Barbers,PROFESSIONAL/FINANCIAL SERVICES,WF1 2JL,53.710001,-1.502314,8046182,"Glass, Paint, Wallpaper Stores"
Darson Cars Limited,AUTO RELATED,ML5 1HZ,55.854784,-4.04386,5013358,Neutraceauticals
Elite News & Off-Licence ,RETAIL SHOPS,LE4 6PN,52.652503,-1.120058,5015099,Vending Machines
PZPZ LTD T/ A Bamboo House,RESTAURANT,OX26 6JW,51.89911,-1.152631,5026850,Eating Places
Fizco Barber Salon,PROFESSIONAL/FINANCIAL SERVICES,WR12rs,52.195169,-2.217207,5051529,"Second Hand Stores, Used Merch"
Favourite Bites,RESTAURANT,B4 6UD,52.482764,-1.893421,5067528,"Consulting, Public Relations"
Barolo ,RESTAURANT,NG13 8AB,52.951703,-0.952701,5014676,Vending Machines
Pets Corner,RETAIL SHOPS,L18 6HG,53.38404,-2.906394,5025536,Stores
The Tahdig Restaurant,RESTAURANT,HA8 0LT,51.601506,-0.265367,5029532,Vending Machines
DTD Drainage,RETAIL SHOPS,da7 4qb,51.469162,0.136821,5057071,"Grocery Stores, Supermarkets"
Lavish Eyes & Brows ,PROFESSIONAL/FINANCIAL SERVICES,DE14 1BU,52.803612,-1.630878,5052039,Discount Stores
RSM MOTORS,AUTO RELATED,N15 4QL,51.583954,-0.062413,5015676,Transportation Services-not el
Gaafour Furniture,PROFESSIONAL/FINANCIAL SERVICES,M14 7BZ,53.44719,-2.237552,5066285,Eating Places
Saquib Food Ltd,RESTAURANT,G42 8RX,55.836383,-4.26274,5053035,"Grocery Stores, Supermarkets"
Branksomewood Pharmacy,HEALTH CARE,SL6 4NJ,51.514962,-0.756041,5064182,Stores
Fleet Pharmacy ,HEALTH CARE,SL6 4NJ,51.514962,-0.756041,5032660,Barber and Beauty Shops
Mold Fast Valeting Ltd,AUTO RELATED,L7 4JQ,53.396837,-2.945076,5066239,Neutraceauticals
Boulevard Amusements,RETAIL SHOPS,RH7 6HT,51.154836,-0.072562,5066246,Eating Places
Pizza Hot,RESTAURANT,DL1 5JW,54.521343,-1.551,5059264,Eating Places
D6 Motors,AUTO RELATED,Ub6 7lh,51.538922,-0.317438,5066228,Wholesale Clubs
L Shufflebottoms,ENTERTAINMENT,BR2 6AR,51.339053,0.002981,5066240,Stores
Toyset,ENTERTAINMENT,BR2 6AR,51.339053,0.002981,5066280,Neutraceauticals
Nott,RESTAURANT,EH7 4NY,55.963182,-3.177985,5066253,Stores
Donaldsons Guns. ,RETAIL SHOPS,mk22az,51.997343,-0.715187,5066289,Vending Machines
Yakut lounge,RESTAURANT,NN1 4EH,52.242222,-0.876366,5066303,Bakeries
HEMINGWAY Entertainments ,ENTERTAINMENT,BL1 3AJ,53.583374,-2.44463,5066265,Stores
Damascan Non-Veg Kitchen,RESTAURANT,SE1 0LT,51.503364,-0.102775,5066207,Barber and Beauty Shops
Kurdistan Supermarket,RETAIL SHOPS,Wa2 7ar,53.397528,-2.58833,5066548,Vending Machines
FLO HAIR & BEAUTY ,PROFESSIONAL/FINANCIAL SERVICES,N9 0ER,51.627614,-0.045249,5065488,Neutraceauticals
MC MOTO LTD,AUTO RELATED,NW10 2QU,51.546099,-0.22953,5066208,Neutraceauticals
Jades Restaurant,RESTAURANT,CM23 4EG,51.858644,0.144579,5066257,Vending Machines
Swiftys Off Licence,RETAIL SHOPS,EC2A 4NE,51.525615,-0.083628,5066235,Stores
Automart mk ltd,AUTO RELATED,NW6 2EG,51.548215,-0.198197,5066223,Limousines and Taxicabs
Daily fresh Naan ,RESTAURANT,SL1 1JS,51.50773,-0.589765,5066248,"Health Practitioners, Medical"
VIP Auto,AUTO RELATED,DY3 2UH,52.519394,-2.133868,5066297,"Bars, Cocktail Lounges, Discot"
SERGIO'S FRY,RESTAURANT,EH11 1QY,55.933017,-3.235031,5066211,Vending Machines
My Pizza Plus Telford,RESTAURANT,TF1 1DD,52.701849,-2.519256,5066274,"Health Practitioners, Medical"
LILI ITALIA L1 LTD ,RETAIL SHOPS,DY10 2DU,52.389987,-2.247504,5066283,Vending Machines
Diamond Accounting Solutions ,PROFESSIONAL/FINANCIAL SERVICES,Bs50ra,51.460188,-2.575122,5051729,Neutraceauticals
SUSSEX BED CENTRE (HAYWARDS HEATH) LTD_SUSSE037,RETAIL SHOPS,RH16 4EA,50.99452,-0.100673,5030618,Neutraceauticals
Antonia Provette t/as Mirror Mirror,PROFESSIONAL/FINANCIAL SERVICES,BN14 0BF,50.849187,-0.398645,5042656,Neutraceauticals
Norada Grill & Tavern,RESTAURANT,NR29 5HX,52.71576,1.57486,5036836,Neutraceauticals
Dida's Jamaican Produce,RETAIL SHOPS,SW9 8PQ,51.46332,-0.111692,5066267,Neutraceauticals
Home Store Food & Wine,SUPERMARKETS,CR4 2HA,51.4103,-0.159216,5066244,Eating Places
78 Meat And Fish,SUPERMARKETS,SE17 2DQ,51.488448,-0.092404,5066293,Neutraceauticals
Munchkins Nursery Dunton Fields ,EDUCATION,CM6 1UU,51.872823,0.362473,5023012,Barber and Beauty Shops
Bon and Vendure Ltd,RESTAURANT,MK17 9RD,52.009592,-0.671541,5066252,Barber and Beauty Shops
Premier Lounge & Suite,ENTERTAINMENT,SK8 4BJ,53.395617,-2.236061,5066295,Eating Places
Barwaaqo Cafe,RESTAURANT,BS5 9JJ,51.458206,-2.56282,5066296,Eating Places
Barwaaqo Restaurants,RESTAURANT,BS5 9JJ,51.458206,-2.56282,5027501,Eating Places
Barwaaqo Restaurant ,RESTAURANT,BS5 9JJ,51.458206,-2.56282,5066206,Other Services
"Evo Plumbing, Heating and Drainage 2",RETAIL SHOPS,RH10 3HZ,51.150528,-0.103298,5066213,Limousines and Taxicabs
"EVO Plumbing, Heating and Drainage",RETAIL SHOPS,RH10 3HZ,51.150528,-0.103298,5066256,Vending Machines
Fone Xpress,TELECOMMUNICATIONS,NW10 0AA,51.55912,-0.249279,5066268,Neutraceauticals
Kitchen,SUPERMARKETS,EH8 9BZ,55.945518,-3.184896,5066227,Stores
Everest,SUPERMARKETS,EH8 9BZ,55.945518,-3.184896,5066278,Florists
Robert Openshaw Fine Jewellery,RETAIL SHOPS,BD19 5AG,53.724305,-1.71238,5066234,Eating Places
 Ball & Co.,RETAIL SHOPS,SL4 3BP,51.479065,-0.612349,5068744,Other Services
MMM Fried Chicken ,RESTAURANT,SE9 5ER,51.445646,0.040382,5066261,"Accounting, Auditing, and Book"
Fallen Hero,RETAIL SHOPS,DN15 7EQ,53.587651,-0.684351,5066222,Automatic Service
Bar,RESTAURANT,NG16 6GJ,53.087689,-1.306052,5066272,Eating Places
Helter Skelter Bar,RESTAURANT,NG16 6GJ,53.087689,-1.306052,5066251,Other Services
Mulled Wine Bar ,RESTAURANT,NG16 6GJ,53.087689,-1.306052,5066254,Eating Places
 Spice Delight Sweets and Snacks ltd,RETAIL SHOPS,TW5 0AQ,51.480461,-0.381798,5066300,Barber and Beauty Shops
THE GAYLORD INDIAN RESTAURANT,RESTAURANT,E14 3DN,51.48871,-0.008098,5066217,Other Services
HB boutique hair & Beauty Salon,PROFESSIONAL/FINANCIAL SERVICES,B61 0JJ,52.362059,-2.06219,5066230,Vending Machines
Collage Artwork Camden,RETAIL SHOPS,NW1 8AF,51.541333,-0.146625,5066282,Repair shops
Queen burger ,RESTAURANT,BS36 2NP,51.529925,-2.454461,5066287,"Bars, Cocktail Lounges, Discot"
Mamo Vaping,RETAIL SHOPS,NE3 2LU,55.015198,-1.640089,5066266,"Architectural, Engineering, an"
Best-One,RETAIL SHOPS,BB9 5EJ,53.818173,-2.22224,5066288,Other Services
Smarts Bletchley,RESTAURANT,MK2 2SW,51.994908,-0.727768,5066292,Eating Places
Sugar Rush,RETAIL SHOPS,BB1 5AF,53.748545,-2.483131,5066212,Barber and Beauty Shops
Melvics Members Lounge,RESTAURANT,B3 1RB,52.485782,-1.904703,5066258,Neutraceauticals
Shades Hair & Beauty Saloon,PROFESSIONAL/FINANCIAL SERVICES,SG2 9SB,51.892985,-0.168797,5066247,Eating Places
Sally McNallys LTD,RESTAURANT,BT62 3SH,54.383605,-6.459602,5066205,Telecommunication Equipment In
Earls Colne Recreation Club,RESTAURANT,CO6 2NG,51.92826,0.692516,5069312,Schools and education
TURNERS FOR MEN,RETAIL SHOPS,CO3 3LX,51.888136,0.891979,5066241,Limousines and Taxicabs
Price & Co,ALL OTHER,Bl1 2rz,53.581291,-2.424172,5066271,Neutraceauticals
CAFE OLE,RESTAURANT,SW11 2PD,51.464399,-0.16778,5012283,Automobile and Truck Dealers
Burnley MOT Centre LTD,OIL COMPANIES,BB114EG,53.786534,-2.265208,5039250,Barber and Beauty Shops
Bay Leaves Larder,RESTAURANT,SO53 1FJ,50.992194,-1.372366,5054423,Barber and Beauty Shops
cute kidz clothing,RETAIL SHOPS,ML1 4JS,55.812672,-3.978418,5066269,Eating Places
OSU,RESTAURANT,N6 5QJ,51.577473,-0.142009,5066245,Stores
John Horne 2,ENTERTAINMENT,G40 4ES,55.83666,-4.221203,5069684,Stores
John Horne,RETAIL SHOPS,G40 4ES,55.83666,-4.221203,5014522,Stores
WESTDALE TRADING LTD,RETAIL SHOPS,NG3 6DH,52.984665,-1.117516,5021441,Automobile and Truck Dealers
Mr Dutsons Hot Bread Shop,SUPERMARKETS,mk137pn,52.050797,-0.779615,5017863,Eating Places
Ideal Store,RETAIL SHOPS,EH22 4NE,55.869521,-3.068784,5015745,Eating Places
Big Daddy Vape,RETAIL SHOPS,N1 6PB,51.527135,-0.08146,5017898,"Candy, Nut, Confectionery Stor"
The Midge Hall,RESTAURANT,PR4 5HA,53.727756,-2.780194,5022735,Vending Machines
The Astley Village Inn,RESTAURANT,PR4 5HA,53.727756,-2.780194,5032163,Vending Machines
The Ram's Head,RESTAURANT,PR4 5HA,53.727756,-2.780194,5011221,Barber and Beauty Shops
The Dolphin Inn,RESTAURANT,PR4 5HA,53.727756,-2.780194,5018300,Furniture-Reupholstery and Rep
DAMASCUS BARBERS,PROFESSIONAL/FINANCIAL SERVICES,SE19 2ET,51.419314,-0.079307,5042811,Neutraceauticals
MAP EXPRESS CARGO SE8,OTHER TRANSPORTATION,SE8 3NU,51.479569,-0.026386,5035898,Theatrical Ticket Agencies
calis cafe,RESTAURANT,M4 5JN,53.485164,-2.233331,5037033,Stores
Chick-Fill-A,RESTAURANT,FY3 7AS,53.826389,-3.037916,8046534,Stores
Skelly Pizza,RESTAURANT,LN6 5TA,53.228853,-0.612036,5012554,Automotive Tire Stores
INMOTION HAIR AND BEAUTY,PROFESSIONAL/FINANCIAL SERVICES,M33 6WT,53.425686,-2.326145,5030958,Vending Machines
ANGIE HEALTHY OPTIONS,RETAIL SHOPS,SW9 7AP,51.469982,-0.111535,5060682,Vending Machines
Duaa Diner,RESTAURANT,E1 1DB,51.519173,-0.060966,5054936,"Grocery Stores, Supermarkets"
JLo's Kitchen,RESTAURANT,Wf10 5pt,53.713376,-1.386471,5043532,Eating Places
Kimberley Hardware Ltd,RETAIL SHOPS,NG16 2NG,52.997131,-1.255324,5055564,Vending Machines
PALACE SPICE,RESTAURANT,SE19 1RX,51.419637,-0.081434,5066218,Eating Places
Bashir & sons,RETAIL SHOPS,E1 6SA,51.524075,-0.071411,5026800,Eating Places
CLAPHAM MOBILE X VAPE,RETAIL SHOPS,SW11 1PW,51.462711,-0.167909,5010952,Caterers
PB PERI PERI & FRIED CHICKEN HITCHIN ,RESTAURANT,SG51RG,51.953631,-0.270836,5020800,Vending Machines
PB PERI PERI HITCHIN ,OTHER TRANSPORTATION,SG51RG,51.953631,-0.270836,5021086,Vending Machines
IFIX & SELL,PROFESSIONAL/FINANCIAL SERVICES,BT28 1AW,54.511763,-6.051006,5042691,"Hotels, motels, resorts"
Sky Diver,ENTERTAINMENT,DH5 0SB,54.81885,-1.447054,5046524,Stores
European Shop,RETAIL SHOPS,WS1 1HP,52.584459,-1.980799,5032287,Stores
BANANA AFRICAN RESTAURANT,RESTAURANT,N17 9TA,51.596073,-0.068348,5044389,Stores
AJ BUTCHERS,SUPERMARKETS,B33 9EJ,52.487187,-1.793823,5046521,Stores
selina whittle,PROFESSIONAL/FINANCIAL SERVICES,LE4 7QE,52.662864,-1.120678,5023339,Eating Places
Five Buns Ltd,RESTAURANT,N12 0bp,51.613666,-0.176324,5011890,Vending Machines
JIMS FISH BAR,RESTAURANT,SE18 5EF,51.487833,0.056264,5020582,Vending Machines
Caledonian Studio Flats,LODGING,N1 1EG,51.540657,-0.117332,5024229,Vending Machines
Korean Bites,RESTAURANT,IG11 8AW,51.536601,0.076746,5032153,Vending Machines
1 LANE MOTORS LTD,AUTO RELATED,SW17 8BH,51.432846,-0.154141,5051507,"Bars, Cocktail Lounges, Discot"
KLN BBQ AND GRILLS,RESTAURANT,LE3 8LP,52.642383,-1.199114,5053445,Tobacco
THE GULWANS BOMBAY BITES,RESTAURANT,LU2 8AR,51.901165,-0.391326,5048154,Telecommunication Equipment In
Pizza Pizza,RESTAURANT,BA3 2HF,51.285217,-2.483544,5047410,Eating Places
RV Catering,RESTAURANT,BA3 2HF,51.285217,-2.483544,5054156,Vending Machines
Royale Hand Car Wash & Valeting Centre,AUTO RELATED,B66 1NL,52.502662,-1.996833,5049505,Other Services
Gem Catering,RETAIL SHOPS,DE21 7HF,52.911915,-1.397343,5060991,Eating Places
Jem Catering,RESTAURANT,DE21 7HF,52.911915,-1.397343,5059919,"Health Practitioners, Medical"
Mr Whippy 2,RESTAURANT,LU1 1TT,51.884728,-0.442783,5033171,Neutraceauticals
Mr Whippy,RESTAURANT,LU1 1TT,51.884728,-0.442783,5060861,Barber and Beauty Shops
Treat station,RESTAURANT,LN11,53.37229919,0.022665501,5056560,Transportation Services-not el
Ik fresh fruit and veg,RETAIL SHOPS,CV1 3HT,52.406991,-1.514382,8046724,"Bars, Cocktail Lounges, Discot"
AMAAN FOOD LTD,RESTAURANT,E7 9PA,51.544938,0.02633,8046500,"Bars, Cocktail Lounges, Discot"
Ram Dispensing Chemist - 9109618,HEALTH CARE,GU16 8UR,51.312573,-0.72555,5052582,Eating Places
Steven's ices,RESTAURANT,DH7 8TH,54.750435,-1.641118,5048334,Tobacco
Galina Trading,TELECOMMUNICATIONS,BD8 9PJ,53.80476,-1.790664,5037227,Eating Places
Curated Events,PROFESSIONAL/FINANCIAL SERVICES,BN15 9EN,50.833849,-0.314033,5010767,Stores
CHICAGO PIZZA,RESTAURANT,HA8 5AW,51.606614,-0.274998,5027597,Stores
My Cup Of HK Tea (London),RESTAURANT,RG41 5SH,51.427608,-0.888801,5027655,Vending Machines
Cakey Smiles,SUPERMARKETS,LE3 1AD,52.623892,-1.156522,5016427,Limousines and Taxicabs
Keyham Vaults,RESTAURANT,PL1 4HT,50.369632,-4.172849,5050597,Vending Machines
The Shakespeare,RESTAURANT,PL1 4HT,50.369632,-4.172849,5050596,Vending Machines
Chipsy King,RESTAURANT,PL1 4HT,50.369632,-4.172849,5048641,Vending Machines
Unique Superstore,SUPERMARKETS,E1 1NU,51.514636,-0.06498,5048642,Vending Machines
Pasha Supermarket,RETAIL SHOPS,PR1 3YH,53.75841,-2.693305,5016100,Wholesale Clubs
Retail 24 Victoria 2,RETAIL SHOPS,SW1V 1RG,51.491962,-0.142114,5031645,Telecommunication Equipment In
Holywood Pizza Co.,RESTAURANT,BT18 9HS,54.638714,-5.838512,5047379,Eating Places
Patisserie Land,SUPERMARKETS,NW10 7JW,51.526436,-0.267039,5017715,Lawn and Supply Stores
The Real Wood Furniture Company,RETAIL SHOPS,OX7 5SZ,51.949915,-1.523124,5026903,Vending Machines
C V S,AUTO RELATED,S63 9NB,53.534295,-1.306424,5027991,General Contractors-Residential
Mark&Steve construction limited,PROFESSIONAL/FINANCIAL SERVICES,M2 3WQ,53.476469,-2.243906,5011384,Barber and Beauty Shops
First Food Fayer Apna Superstore,SUPERMARKETS,WC2H 9JQ,51.514897,-0.123615,5012093,Stores
Apna Superstoress,SUPERMARKETS,WC2H 9JQ,51.514897,-0.123615,5017902,Stores
Apna Superstore,SUPERMARKETS,WC2H 9JQ,51.514897,-0.123615,5040760,Vending Machines
Apna Superstores,RETAIL SHOPS,WC2H 9JQ,51.514897,-0.123615,5024957,Vending Machines
"FUR, FEATHERS & FINS",RETAIL SHOPS,BT319NB,54.260817,-5.931764,5015041,Stores
Four Season's Catering,PROFESSIONAL/FINANCIAL SERVICES,L27 0YA,53.390909,-2.843369,5036076,Eating Places
THE FERRY,RESTAURANT,KT7 0XY,51.389557,-0.325438,5011875,Stores
Londis ,SUPERMARKETS,DA7 4QW,51.46432,0.133039,5018785,General Contractors-Residential
Outlet Furniture ,RETAIL SHOPS,DN32 7AA,53.574773,-0.073044,5035883,Neutraceauticals
The George ,RESTAURANT,N19 4EF,51.56759,-0.12224,5015044,Vending Machines
Munro Glazing,RETAIL SHOPS,EH11 1DL,55.939538,-3.220766,5014887,Eating Places
Camden Food & Wine,RETAIL SHOPS,NW1 7JE,51.534984,-0.13927,5056409,"Grocery Stores, Supermarkets"
Fish Loves Chips,RESTAURANT,FY5 2LX,53.885666,-3.038091,8046546,"Clock, Jewelry, and Watch Repa"
MIMOSA TEA GARDEN,RESTAURANT,CH62 0BH,53.329408,-2.956678,5034082,Vending Machines
Redlion Arcade,RETAIL SHOPS,W4 1QQ,51.494776,-0.253834,5042859,Vending Machines
SAH EDUCATION CONSULTANT,PROFESSIONAL/FINANCIAL SERVICES,PE1 5DD,52.57427,-0.235669,5043506,Vending Machines
Bagel Bite,RESTAURANT,W12 8PS,51.503281,-0.222492,5058101,Eating Places
North Point Pets,RETAIL SHOPS,HU7 4EE,53.786382,-0.321728,5048631,Barber and Beauty Shops
Jamaica love foods,RESTAURANT,E8 4PD,51.537025,-0.063264,5012085,"Equipment, Furniture and home"
S&K HALAL MEAT,SUPERMARKETS,B12 0XR,52.465456,-1.890047,5015373,Barber and Beauty Shops
WAIFAIRER DISCOUNT STORE,RETAIL SHOPS,NG6 9FW,52.998896,-1.18735,5021575,Automatic Service
RJ Gilpin,OTHER TRANSPORTATION,bt618hy,54.407689,-6.611158,5023094,Vending Machines
Matt’s Ices,RESTAURANT,LU7 3UD,51.922196,-0.639331,8046772,Jewelry
Ewood Mart,SUPERMARKETS,BB2 4HY,53.728365,-2.490874,5028487,Eating Places
 Beauty Within Serenity Medispa,PROFESSIONAL/FINANCIAL SERVICES,NN10 6DD,52.298083,-0.598451,5017533,Tourist Attractions and Exhibi
Beauty Within Serenity ,PROFESSIONAL/FINANCIAL SERVICES,NN10 6DD,52.298083,-0.598451,5016569,Vending Machines
DISCOUNT LAND,RETAIL SHOPS,PR8 1DT,53.645716,-3.00562,5018359,Vending Machines
Spice Merchant Henley,RESTAURANT,RG9 2AU,51.537526,-0.903025,5014544,Eating Places
QUEEN BAR&DELI,RESTAURANT,BD1 2SH,53.794231,-1.756563,5011547,Vending Machines
Skelmersdale Electrical Distributors,RETAIL SHOPS,PR1 3HP,53.756479,-2.700781,5020506,"Bars, Cocktail Lounges, Discot"
Fabrics Gold,RETAIL SHOPS,PO13 8LH,50.804478,-1.194223,5012641,Electrical Parts and Equipment
BIG EUROPE SUPERMARKET,RETAIL SHOPS,LS9 6AB,53.811731,-1.508959,5015095,Electrical Parts and Equipment
SINH PRINTS,RETAIL SHOPS,E7 9GX,51.539004,0.029226,5057832,Eating Places
RS Chicken and Pizza,RESTAURANT,RM8 2AR,51.551346,0.111071,5047271,Stores
Bangla sweets Ltd,SUPERMARKETS,E3 4UR,51.524125,-0.023017,5042850,Vending Machines
Blackheath Pet Supplies,RETAIL SHOPS,SE3 7BT,51.47667,0.021299,5042847,"Candy, Nut, Confectionery Stor"
TOP BARBERS,PROFESSIONAL/FINANCIAL SERVICES,TW3 3JB,51.466746,-0.372557,5015576,Automatic Service
MR.V GRILL,RESTAURANT,TW3 3JB,51.466746,-0.372557,5058221,"Bars, Cocktail Lounges, Discot"
Magazinul Meu,RETAIL SHOPS,LS9 7BD,53.8101,-1.510683,5059277,Neutraceauticals
Stay Local Fresh Food Store,RETAIL SHOPS,L8 6SE,53.385905,-2.966425,5040880,Stores
Apache Pizza Andersonstown Road,RESTAURANT,BT11 9BT,54.574221,-5.986504,5057212,Vending Machines
Elevate,PROFESSIONAL/FINANCIAL SERVICES,PE19 5WH,52.289954,-0.255427,5069357,Limousines and Taxicabs
Club cars,OTHER TRANSPORTATION,BS3 3LF,51.440011,-2.601574,5055159,Neutraceauticals
Holos Herbal Practice,HEALTH CARE,BS5 9DX,51.460893,-2.557499,5032758,Veterinary Services
Chicken and Pizza,RESTAURANT,E6 3BE,51.530658,0.04741,5053580,Eating Places
Zara Kebab,RESTAURANT,SM5 2TW,51.369583,-0.157649,5056588,Neutraceauticals
Edward Pitts-Drake,HEALTH CARE,LN2 2FF,53.270708,-0.445893,5055024,Telecommunication Equipment In
Witham Cafe,RESTAURANT,N13 4XE,51.616389,-0.109755,5020122,Veterinary Services
CMH & SONS,RETAIL SHOPS,NG20 0AF,53.206382,-1.151628,5012975,"Equipment, Furniture and home"
CARL HICKEN,RETAIL SHOPS,NG20 0AF,53.206382,-1.151628,5013797,Neutraceauticals
Cofuila 2,RETAIL SHOPS,NG20 0AF,53.206382,-1.151628,5021714,Eating Places
Cofuila,RETAIL SHOPS,NG20 0AF,53.206382,-1.151628,5016063,Automatic Service
American Candy,RETAIL SHOPS,B61 8EX,52.334883,-2.060464,5036250,Horticultural and Landscaping
The grub hub,RESTAURANT,YO11 3LL,54.239258,-0.397292,5024501,Mens and Boys Clothing
NORBURY HALAL MEAT,RETAIL SHOPS,SW16 4BZ,51.410219,-0.122324,5036533,Eating Places
Fridays Barbers,PROFESSIONAL/FINANCIAL SERVICES,M8 9JW,53.510544,-2.243754,5052342,Eating Places
Local cutz,PROFESSIONAL/FINANCIAL SERVICES,SE6 2JT,51.442265,-0.011403,5046998,Vending Machines
Cafe,RESTAURANT,BD21 3RG,53.867892,-1.904691,5065780,Eating Places
Bakers + Baristas,RESTAURANT,RH10 1FF,51.113587,-0.185691,5057693,Barber and Beauty Shops
La Vania Shisha & Bar,RESTAURANT,HU5 3QJ,53.75555,-0.358754,5011491,"Bars, Cocktail Lounges, Discot"
KLI Detailing,PROFESSIONAL/FINANCIAL SERVICES,PL5 3LF,50.408038,-4.154479,5015364,"Freezer, Locker Meat Provision"
Thorpe Taxi,OTHER TRANSPORTATION,PL5 3LF,50.408038,-4.154479,5012903,"Freezer, Locker Meat Provision"
Direct Pizza,RESTAURANT,ST16 1TQ,52.829694,-2.124572,5037308,Barber and Beauty Shops
Rose Hill Fresh Fish,RETAIL SHOPS,SM5 1AG,51.383066,-0.188422,5036172,"Candy, Nut, Confectionery Stor"
Poulton Electrical Supplies,RETAIL SHOPS,FY6 8JF,53.84385,-2.969217,5013123,Neutraceauticals
Bernard Rochet Flowers,RETAIL SHOPS,SW3 2DY,51.494088,-0.168553,5026245,Stores
Rathfriland Farmers Market,RESTAURANT,BT34 5PQ,54.262675,-6.161731,5012870,Veterinary Services
Rathfriland Farmers Co-operative society ltd (office),PROFESSIONAL/FINANCIAL SERVICES,BT34 5PQ,54.262675,-6.161731,5012799,Car Washes
Newinton Accountancy,PROFESSIONAL/FINANCIAL SERVICES,SE3 8QZ,51.465214,0.039354,5046903,Vending Machines
EuroJap autos ltd,AUTO RELATED,TW13 5PH,51.439523,-0.378877,5066215,Automatic Service
Nicky's Ices,RESTAURANT,PL2 2EX,50.39536,-4.169776,5042968,Vending Machines
LOAD-MOOVERS REMOVALS LTD,PROFESSIONAL/FINANCIAL SERVICES,EH4 7HH,55.955046,-3.283702,5054662,Vending Machines
Lebanese Grill,RESTAURANT,W2 1DS,51.51933,-0.168535,5014723,Clothing store
Ravi saloon,PROFESSIONAL/FINANCIAL SERVICES,HA0 4YA,51.550986,-0.29832,5014591,Stores
S&D recovery,PROFESSIONAL/FINANCIAL SERVICES,BN41 2TA,50.845043,-0.223543,5055370,Eating Places
Lancashire Jackets,RESTAURANT,FY4 1BB,53.794329,-3.05733,8046670,Carpentry Contractors
FIVE STAR TYRES,PROFESSIONAL/FINANCIAL SERVICES,LS9 7DX,53.804894,-1.509813,5011171,"Clothing Rental-Costumes, Unif"
Vice City Ashington,RESTAURANT,NE63 0AF,55.182639,-1.569046,5053786,Clothing store
AS ESTIMATION AND CONSULTANTS Ltd,PROFESSIONAL/FINANCIAL SERVICES,CR7 6BW,51.388795,-0.117636,5014719,Stores
NextGen charge limited,PROFESSIONAL/FINANCIAL SERVICES,BD8 7JF,53.802148,-1.760587,5059066,Limousines and Taxicabs
AYEEYO`S KITCHEN,RESTAURANT,CF11 7AN,51.469708,-3.18497,5011502,Motor Vehicle Supplies and New
Lucky 53 Barber,PROFESSIONAL/FINANCIAL SERVICES,M11 1JJ,53.472706,-2.164431,5047490,Department Stores
Active 24/7,RETAIL SHOPS,DY9 8LN,52.457141,-2.11412,5010899,Womens Ready to Wear Stores
Spice merchant Cookham,RESTAURANT,SL6 9SL,51.559753,-0.709623,5030793,Vending Machines
TECH ZONE,TELECOMMUNICATIONS,WV14 0EP,52.563925,-2.08004,5017093,"Cleaning, Garment, and Laundry"
Great Lion Academy,EDUCATION,SE17 1JE,51.48871,-0.096354,5042810,Clothing store
Taxi,OTHER TRANSPORTATION,LU1 5FT,51.876112,-0.418345,5018234,Vending Machines
Matt Wade the Banana King,RETAIL SHOPS,PR1 2EN,53.76002,-2.700794,5050476,Vending Machines
R S Motors ,AUTO RELATED,PL12 4HJ,50.41433,-4.235496,5047227,Vending Machines
Arks Hair Studio,PROFESSIONAL/FINANCIAL SERVICES,PO12 1LT,50.794465,-1.130009,5035961,Vending Machines
Arks Hair Salon ,PROFESSIONAL/FINANCIAL SERVICES,PO12 1LT,50.794465,-1.130009,5054352,Neutraceauticals
Torto Portuguese Cuisine,RESTAURANT,E16 4HQ,51.517834,0.012226,8046518,Dry Cleaners
Blaze Hockey Locker,RETAIL SHOPS,CV1 3AZ,52.407491,-1.518125,5037332,Barber and Beauty Shops
Blaze Hockey Locker Store2,RETAIL SHOPS,CV1 3AZ,52.407491,-1.518125,5015336,Automatic Service
Sodbury Performance ,AUTO RELATED,Bs37 6aa,51.539048,-2.390388,5046414,Caterers
CH Motors ,AUTO RELATED,SL2 5DH,51.513765,-0.591161,5035289,Vending Machines
XAVIER'S COCKTAIL LOUNGE LTD,RESTAURANT,OL10 1JF,53.594002,-2.226122,5034094,Vending Machines
Cake Zone,RESTAURANT,CR0 2TH,51.38294,-0.107001,5019874,Vending Machines
Ali's Ices,RETAIL SHOPS,se26 5RZ,51.424936,-0.041339,8046686,"Bars, Cocktail Lounges, Discot"
Yiannos Fish Bar,RESTAURANT,LL11 6LW,53.062501,-3.035722,5036828,Eating Places
Chick Box ,RESTAURANT,BD8 8NL,53.800939,-1.772087,5038919,Eating Places
SHADES,PROFESSIONAL/FINANCIAL SERVICES,TA24 5AY,51.206802,-3.473949,5047022,Real Estate Agents and Manager
Edward Charles Interiors,PROFESSIONAL/FINANCIAL SERVICES,CO10 9JG,52.079433,0.719416,5028717,Neutraceauticals
Toms Corner,RETAIL SHOPS,BT28 2Zg,54.516385,-6.091743,5012474,"Automotive Parts, Accessories"
darren - demo ,ENTERTAINMENT,BT36 4GP,54.674503,-6.002349,5014346,Hardware Stores
Tcmjack Limited,PROFESSIONAL/FINANCIAL SERVICES,IG1 1QE,51.55964,0.077232,5050868,Other Services
MB Motor Trade,AUTO RELATED,LN3 4PH,53.23299,-0.500523,5013544,Eating Places
Supply N' Fit Tyres Ltd,AUTO RELATED,Rm12 4tn,51.565264,0.187801,5029930,Vending Machines
Kismat Takeaway,RESTAURANT,FK8 1RN,56.130429,-3.952727,5030822,Vending Machines
MEALS ON WHEELZ LTD,RESTAURANT,BD3 0PS,53.802414,-1.733255,5030823,Vending Machines
DUDLEY ROAD HALAL MEAT,SUPERMARKETS,B18 4HD,52.48743,-1.945895,5029302,Vending Machines
Cluckers - Takeaway,RESTAURANT,IG1 4PG,51.560427,0.069362,5030821,Vending Machines
Beti Cafe,RESTAURANT,CV1 5LJ,52.410964,-1.492787,5058778,Towing Services
Zen Den Wellbeing Cafe ,RESTAURANT,TS21 2BN,54.652982,-1.450999,5058774,Towing Services
A&I Catering,PROFESSIONAL/FINANCIAL SERVICES,G40 4ES,55.83666,-4.221203,5058777,Towing Services
KING OF FALAFAL ,RESTAURANT,SE1 5RU,51.489212,-0.070923,5052442,Stores
KING OF FALAFEL 2,RESTAURANT,SE1 5RU,51.489212,-0.070923,5044397,Stores
Ben Sheann Hotel,LODGING,FK18 8NA,56.324933,-4.327884,5057576,Caterers
Juvenile Ride,ENTERTAINMENT,NG17 9LH,53.091397,-1.276395,5058355,"Athletic Fields, Commercial Sp"
Hook a Duck,ENTERTAINMENT,NG17 9LH,53.091397,-1.276395,5051106,Eating Places
juvenile ride,ENTERTAINMENT,NG17 9LH,53.091397,-1.276395,5038881,"Bars, Cocktail Lounges, Discot"
Hook A Duck,ENTERTAINMENT,NG17 9LH,53.091397,-1.276395,5012689,Stores
Banarasi ,RESTAURANT,HU5 3RX,53.752361,-0.361086,5042927,Eating Places
Golden Fry,RESTAURANT,L21 8JP,53.46263,-2.99656,5042408,Barber and Beauty Shops
Acrepolis,RESTAURANT,EH112ay,55.944429,-3.218295,5046876,Stores
Pizza Plus Longstratton,RESTAURANT,NR15 2XW,52.485735,1.233194,5048036,Stores
Pizza go go,RESTAURANT,BA1 5DJ,51.390023,-2.356396,8046822,Vending Machines
H BAR,RESTAURANT,GU2 4BL,51.23451,-0.577894,5012914,Automobile Parking Lots and Ga
Vape Tronix ,RETAIL SHOPS,OL1 3SL,53.542392,-2.108941,5060142,Vending Machines
Fones 4 All ,TELECOMMUNICATIONS,CR0 1TL,51.376718,-0.102053,5061821,Vending Machines
Namaste Punjab,RESTAURANT,PO19 3BW,50.842095,-0.781615,5012887,Eating Places
VILLAGE PERI PERI,RESTAURANT,MK42 9XD,52.117435,-0.462524,5015632,Neutraceauticals
Dr Tech,PROFESSIONAL/FINANCIAL SERVICES,SE15 4RZ,51.469023,-0.068107,5027530,Eating Places
La Ballerina Restaurant,RESTAURANT,WC2E 7AH,51.513515,-0.122804,5057901,Vending Machines
Hey Baby 4D Stalybridge,HEALTH CARE,SK15 1NX,53.483095,-2.058278,5044076,Vending Machines
TOWNSEND FRESH MARKET,RETAIL SHOPS,L6 0AX,53.428937,-2.948196,5017263,Barber and Beauty Shops
Smart Touch Barber,PROFESSIONAL/FINANCIAL SERVICES,LE1 2AB,52.641233,-1.126661,5011722,Barber and Beauty Shops
JAY M&Co Transport,OTHER TRANSPORTATION,NW10 6EU,51.528073,-0.264517,5011278,Stores
The Little Box Co - 9094650,RESTAURANT,NN15 7HW,52.3925,-0.729711,5057043,Department Stores
The Little Box Co - 9098871,RESTAURANT,NN15 7HW,52.3925,-0.729711,5023872,Eating Places
Istanbul Grill,RESTAURANT,SM2 7AJ,51.355073,-0.212492,5028658,Vending Machines
Cloudy Vape ,RETAIL SHOPS,CH65 6RT,53.275008,-2.908209,5051249,Eating Places
Press 29,RESTAURANT,BT7 1QB,54.583341,-5.925894,5011769,Eating Places
H&H NEW FASHION LTD,RETAIL SHOPS,Ig1 2rj,51.555344,0.071961,5024818,Bakeries
Pro gadgets,RETAIL SHOPS,B19 3ag,52.493873,-1.912409,5024964,"Equipment, Furniture and home"
Cafe in the Square,RESTAURANT,KY169NN,56.339957,-2.795789,5043961,Stores
Rayztaxi,OTHER TRANSPORTATION,EX39 3FE,51.014816,-4.210958,5014848,"Bars, Cocktail Lounges, Discot"
J & R catering 3,RESTAURANT,B64 5JP,52.477738,-2.07213,5011304,Automatic Service
J & R Catering 2,RESTAURANT,B64 5JP,52.477738,-2.07213,5044083,Stores
J & R Catering 1,RESTAURANT,B64 5JP,52.477738,-2.07213,5011569,Barber and Beauty Shops
J & R catering 4 ,RESTAURANT,B64 5JP,52.477738,-2.07213,5010980,Vending Machines
REFRIGERATION EQUIPMENT WHOLESALE LIMITED,RETAIL SHOPS,M34 3RB,53.452567,-2.131977,5013784,Vending Machines
Pal Mobiles,TELECOMMUNICATIONS,LU1 5BJ,51.877178,-0.419392,5017337,Vending Machines
Retrograde Wrexham,RESTAURANT,LL13 8DG,53.04444,-2.988586,5011493,Vending Machines
The Green Welly,RETAIL SHOPS,PE16 6UA,52.466433,0.040867,5019038,Vending Machines
Baykan Cafe,RESTAURANT,N4 1PR,51.575905,-0.090306,5034929,Eating Places
Xterian ,PROFESSIONAL/FINANCIAL SERVICES,DN20 8QE,53.555362,-0.488801,5013723,Motorcycle Shops and Dealers
Jaggi’s Salon,PROFESSIONAL/FINANCIAL SERVICES,RG6 1LH,51.448545,-0.936793,5050509,Eating Places
Kate's Beauty,PROFESSIONAL/FINANCIAL SERVICES,SW115HE,51.474374,-0.1495,5043285,Eating Places
FIERCE FIXX,RETAIL SHOPS,Dd1 5rr,56.463955,-2.977562,5041822,Neutraceauticals
THE GOD FATHER ,RESTAURANT,L15 0EE,53.39735,-2.935688,5049689,Stores
